name,url,telephone,type1,type2,geo_longitude,geo_latitude,addressLocality,addressRegion,addressCountry,tag0,tag1,tag2,tag3,tag4,tag5,tag6,tag7
The Adventure Islands,https://www.theadventureisland.com/,353862518252,LocalBusiness,SportsActivityLocation,-9.6308032,53.8278441,Westport,Mayo,Republic of Ireland,Activity,Kayaking,Activity Operator,Walking,Day Tour,Tour,Boat,None
Bella & Brava Restaurant,https://bellabravarestaurant.com/,353719306727,LocalBusiness,FoodEstablishment,-8.6056089,54.1710166,Coolaney,Sligo,Republic of Ireland,Activity,Food and Drink,Restaurant,Local Produce,None,None,None,None
Michael J Quill Centre,http://www.historic-ireland.com/places/778.html,353646685511,LocalBusiness,Museum,-9.46143,51.902656,Kilgarvan,Kerry,Republic of Ireland,Activity,Attraction,Museums and Attraction,None,None,None,None,None
Pat Falvey Irish and Worldwide Adventures,https://patfalvey.com,353646644181,LocalBusiness,SportsActivityLocation,-9.6443352,52.0421787,Beaufort,Kerry,Republic of Ireland,Activity,Climbing,Activity Operator,Walking,None,None,None,None
Craftmark,https://www.louthcraftmark.com/,353429385720,LocalBusiness,Store,-6.3484734,53.7154343,Drogheda,Louth,Republic of Ireland,Activity,Craft,Shopping,Shopping Centres and Department Store,Food Shops,None,None,None
Busy Bees - Childrens Activity Centre,https://busybeesgalway.com/,353091788516,LocalBusiness,TravelAgency,-8.930215,53.277651,Oranmore,Galway,Republic of Ireland,Activity,Activity Operator,None,None,None,None,None,None
Kinvara Smoked Salmon Limited,https://kinvarasmokedsalmon.com/,353091637489,LocalBusiness,ShoppingCenter,-8.934515,53.138495,Kinvara,Galway,Republic of Ireland,Activity,Shopping,Shopping Centres and Department Store,Food Shops,None,None,None,None
The Coast Club Leisure Centre,https://www.connemaracoasthotel.ie/leisure/coast-club-leisure-centre,353091503904,LocalBusiness,HealthClub,-9.200456,53.248611,Spiddal,Galway,Republic of Ireland,Activity,Pampering,Health Farm,Spa and Wellness,Specialised Retreat,Swimming,Swimming Pools and Water Park,Venue
The Lakes Of Killarney,,,LocalBusiness,SportsActivityLocation,-9.5696539,52.0418477,Killarney,Kerry,Republic of Ireland,Activity,Fishing,Angling,None,None,None,None,None
Trinitarian Monastery,https://www.adareparish.ie/our-parish/virtual-tour-2/,35361396172,LocalBusiness,TouristAttraction,-8.7890832,52.564815,Adare,Limerick,Republic of Ireland,Activity,Attraction,Historic Houses and Castle,Church Abbey,Monastery,Churches,Abbeys and Monastery,None
Dn Na Sad Castle,https://www.baltimorecastle.ie/,3532820735,LocalBusiness,TouristAttraction,-9.3731024,51.4835713,Baltimore,Cork,Republic of Ireland,Activity,Attraction,Historic Houses and Castle,Castle,None,None,None,None
Conna Castle,https://www.castles.nl/conna-castle,353862149601,LocalBusiness,TouristAttraction,-8.1016545,52.0945205,Conna,Cork,Republic of Ireland,Activity,Castle,Attraction,Historic Houses and Castle,None,None,None,None
Lough Unshin And Lough McCall,,3530719841350,LocalBusiness,SportsActivityLocation,-8.20047172433088,54.4974306456252,Ballyshannon,Donegal,Republic of Ireland,Activity,Fishing,Angling,None,None,None,None,None
Lower Lough Avaul,,35302641222,LocalBusiness,SportsActivityLocation,-8.9637,51.906862,Glengarriff,Cork,Republic of Ireland,Activity,Fishing,Angling,None,None,None,None,None
River Lee System,,35302641222,LocalBusiness,SportsActivityLocation,-8.9637,51.906862,Macroom,Cork,Republic of Ireland,Activity,Fishing,Angling,None,None,None,None,None
Knockerra Lough,,,LocalBusiness,SportsActivityLocation,-9.49119021461257,52.6384671283145,Kilrush,Clare,Republic of Ireland,Activity,Fishing,Angling,None,None,None,None,None
Burrishoole Fishery,http://www.burrishoole.ie,35309842300,LocalBusiness,SportsActivityLocation,-9.571961,53.922925,Newport,Mayo,Republic of Ireland,Activity,Fishing,Angling,Activity Operator,Venue,Sports Venues,None,None
Upper Lake Killarney,,,LocalBusiness,SportsActivityLocation,-9.51639841834518,52.0533526535943,Killarney,Kerry,Republic of Ireland,Activity,Fishing,Angling,None,None,None,None,None
The Meadows Trout Fishery,,3530868047516,LocalBusiness,SportsActivityLocation,-7.6872031540283,55.1904173514269,Letterkenny,Donegal,Republic of Ireland,Activity,Fishing,Angling,None,None,None,None,None
Killoughternane,,,LocalBusiness,TouristAttraction,-6.82471115309872,52.6628559636995,Bagenalstown,Carlow,Republic of Ireland,Activity,Church Abbey,Monastery,Attraction,Churches,Abbeys and Monastery,Ruins,Historic Houses and Castle
Cork City Library,http://www.corkcitylibraries.ie,353214924900,LocalBusiness,TouristAttraction,-8.475332,51.896731,Cork City,Cork,Republic of Ireland,Activity,Learning,Attraction,Literary Ireland,None,None,None,None
St. Patrick's Well Cross,,,LocalBusiness,TouristAttraction,-7.39327656445312,52.4160710356843,Ahenny,Tipperary,Republic of Ireland,Activity,Church Abbey,Monastery,Attraction,Churches,Abbeys and Monastery,None,None
St. Laurence's Gate - Drogheda Walls,http://www.discoverboynevalley.ie/boyne-valley-drive/heritage-sites/st-laurences-gate-drogheda-walls,353419872843,LocalBusiness,TouristAttraction,-6.347102,53.71591,Drogheda,Louth,Republic of Ireland,Activity,Photography,Learning,Attraction,Historic Houses and Castle,None,None,None
Island Cottage Cookery School,http://www.islandcottage.com,3532838102,LocalBusiness,TravelAgency,-9.43885631149706,51.496242418128,Heir Island,Cork,Republic of Ireland,Activity,Cooking,Cookery,Learning,Activity Operator,None,None,None
Revas Spa at Fitzgeralds Woodlands House Hotel,https://www.woodlandsrevasspa.ie/,35361605120,LocalBusiness,HealthClub,-8.7677221,52.5629615,Adare,Limerick,Republic of Ireland,Activity,Pampering,Health Farm,Spa and Wellness,Specialised Retreat,Spa,Food Shops,Shopping
ESPA at the g Hotel,https://www.theghotel.ie/spa,35391865200,LocalBusiness,HealthClub,-9.0321391,53.2816715,Galway City,Galway,Republic of Ireland,Activity,Pampering,Health Farm,Spa and Wellness,Specialised Retreat,Spa,Activity Operator,None
The Spa at Parknasilla,https://parknasillaresort.com/spa/,353646675600,LocalBusiness,HealthClub,-9.8747331,51.8156968,Parknasilla,Kerry,Republic of Ireland,Activity,Pampering,Health Farm,Spa and Wellness,Specialised Retreat,Spa,None,None
The Hamilton Gallery,https://hamiltongallery.ie/,353719143686,LocalBusiness,Store,-8.47239424040606,54.2705261165702,Sligo Town,Sligo,Republic of Ireland,Activity,Craft,Shopping,Art Gallery,Attraction,None,None,None
The Donegal Gaeltacht,,,LocalBusiness,TouristAttraction,-8.1107141,54.654487,Glencolmcille,Donegal,Republic of Ireland,Activity,Natural Landscape,Attraction,None,None,None,None,None
The Bike Shed,http://www.thebikeshed.ie,353866028228,LocalBusiness,SportsActivityLocation,-8.504709,51.8887628,Cork City,Cork,Republic of Ireland,Activity,Cycling,Activity Operator,Bike Rental,Tour,None,None,None
Pedal Pursuits Bike Hire,http://www.pedalpursuitsbikehire.com,353868134061,LocalBusiness,SportsActivityLocation,-9.1116986,52.4334189,Newcastle West,Limerick,Republic of Ireland,Activity,Cycling,Activity Operator,Bike Rental,None,None,None,None
Ireland's Wildlife,http://www.irelandswildlife.com/discover-wildlife,3530212348015,LocalBusiness,SportsActivityLocation,-9.02821432137455,51.5757325711178,Rosscarbery,Cork,Republic of Ireland,Activity,Bird Watching,Nature and Wildlife,Walking,Activity Operator,Day Tour,Tour,None
O'Riain Pottery,http://oriainpottery.com,353719183838,LocalBusiness,Store,-8.529161,54.062616,Ballymote,Sligo,Republic of Ireland,Activity,Craft,Shopping,Learning,Activity Operator,Food Shops,None,None
Brideweir House,https://www.brideweir.ie,3532536386,LocalBusiness,TouristAttraction,-8.1550475,52.0869699,Conna,Cork,Republic of Ireland,Activity,Castle,Attraction,Historic Houses and Castle,None,None,None,None
126 Artist-Run Gallery,https://126gallery.com/,,LocalBusiness,Store,-9.0494491,53.2772719,Galway City,Galway,Republic of Ireland,Activity,Craft,Shopping,Art Gallery,Attraction,None,None,None
CARHIRE.ie Cork,https://www.carhire.ie/car-hire-cork-city,353212400140,LocalBusiness,Not Available,-8.4691975,51.8944839,Cork City,Cork,Republic of Ireland,Activity,Transport,Coach,Road,None,None,None,None
Allihies Copper Mine Tour,http://bearabaoitours.com,3530876461627,LocalBusiness,SportsActivityLocation,-10.045510909174,51.6391211806187,Allihies,Cork,Republic of Ireland,Activity,Walking,Activity Operator,Tour,None,None,None,None
Cork Bike Rental,http://www.corkbikerental.com/home.php#land,353214211807,LocalBusiness,SportsActivityLocation,-8.48866641157611,51.9238246391985,Cork City,Cork,Republic of Ireland,Activity,Cycling,Bike Rental,None,None,None,None,None
Passage West Maritime Museum CLG,http://passagemuseum.ie/index.html,353871363588,LocalBusiness,Museum,-8.336456,51.872362,Passage West,Cork,Republic of Ireland,Activity,Attraction,Museums and Attraction,None,None,None,None,None
IUNVA Post 19,https://iunvapost19.com/,353864160532,LocalBusiness,TouristAttraction,-7.7318534923462,54.9574038713154,Letterkenny,Donegal,Republic of Ireland,Activity,Attraction,Public Sculpture,None,None,None,None,None
Horsemen of Eire,http://www.horsemenofeire.com,353834343130,LocalBusiness,SportsActivityLocation,-6.60092004969272,52.3616153955064,Wexford Town,Wexford,Republic of Ireland,Activity,Horse Riding,Equestrian,Activity Operator,None,None,None,None
Wild Rover Bikes,http://wildroverbikes.ie,353833457898,LocalBusiness,SportsActivityLocation,-7.34331,52.22183,Kilmacthomas,Waterford,Republic of Ireland,Activity,Cycling,Activity Operator,Bike Rental,None,None,None,None
Ionad Cois Locha,http://dunleweycentre.com/,353749531699,LocalBusiness,Store,-8.1476412,55.025326,Dunlewy,Donegal,Republic of Ireland,Activity,Craft,Shopping,Cruising,Kayaking,Activity Operator,Walking,Attraction
County Museum Dundalk,https://www.louthcoco.ie/en/contact/location_maps/dundalk/dundalk_museum.html,353429327056,LocalBusiness,TouristAttraction,-6.3971254,54.0046228,Dundalk,Louth,Republic of Ireland,Activity,Attraction,Historic Houses and Castle,Museums and Attraction,Venue,Music,Tour,None
Tropical World,https://tropicalworld.ie/,353749121541,LocalBusiness,TouristAttraction,-7.6942623,54.9662137,Letterkenny,Donegal,Republic of Ireland,Activity,Bird Watching,Nature and Wildlife,Attraction,Zoos and Aquarium,Cafe,Food and Drink,Food Shops
Dingle Cookery School,https://www.facebook.com/pages/Dingle-Cookery-School/550799285065901,353868723521,LocalBusiness,FoodEstablishment,-10.2810225,52.1412601,Dingle,Kerry,Republic of Ireland,Activity,Food and Drink,Cooking,Cookery,Learning,Restaurant,Activity Operator,Local Produce
Mary Crowley's Artist Studio and Gallery,https://marycrowleyart.com/,353862664554,LocalBusiness,Store,-7.49599965152231,55.2695837391063,Clonmany,Donegal,Republic of Ireland,Activity,Craft,Shopping,Shopping Centres and Department Store,Art Gallery,Attraction,Food Shops,None
Coarse Angling Killeshandra,http://www.killeshandratourism.com/business/angling-in-killeshandra,3530494334487,LocalBusiness,SportsActivityLocation,-7.527691,54.015737,Killeshandra,Cavan,Republic of Ireland,Ireland's Hidden Hearthlands,Activity,Fishing,Angling,Activity Operator,None,None,None
Abbey Road Artists Studios,http://www.athloneartsandtourism.ie/artists-studios/,353906442154,LocalBusiness,Store,-7.9442923,53.429856,Athlone,Westmeath,Republic of Ireland,Ireland's Hidden Hearthlands,Activity,Craft,Shopping,Art Gallery,Attraction,None,None
Shannon Sailing,http://www.shannonsailing.com,3536724499,LocalBusiness,SportsActivityLocation,-8.28315501852421,52.9241826772898,Nenagh,Tipperary,Republic of Ireland,Ireland's Hidden Hearthlands,Activity,Sailing,Activity Operator,Marina,Venue,None,None
Lough Derg Place of Pilgrimage,https://www.loughderg.org/,353719861518,LocalBusiness,SportsActivityLocation,-7.87127813389588,54.6089850115486,Pettigo,Donegal,Republic of Ireland,Activity,Transport,Walking,Church Abbey,Monastery,Attraction,Churches,Abbeys and Monastery
Kells Historic Trail,https://www.discoverboynevalley.ie/plan-your-visit/things-to-do/kells-historic-trail,353469247508,LocalBusiness,SportsActivityLocation,-6.8707216,53.7263713,Kells,Meath,Republic of Ireland,Activity,Walking,Church Abbey,Monastery,Attraction,Churches,Abbeys and Monastery,Tour
Christ Church - Glandore,https://www.facebook.com/christchurchglandore,353238848166,LocalBusiness,TouristAttraction,-9.1237442,51.5656831,Glandore,Cork,Republic of Ireland,Activity,Attraction,Historic Houses and Castle,Church Abbey,Monastery,Churches,Abbeys and Monastery,None
Schoolhouse for Art,http://www.schoolhouseforart.com,35312869594,LocalBusiness,Store,-6.1699289,53.192824,Enniskerry,Wicklow,Republic of Ireland,Activity,Craft,Shopping,Learning,Activity Operator,None,None,None
Clare Day Tours,https://claredaytours.ie,353872704380,LocalBusiness,TravelAgency,-8.540705,52.9000494,Tuamgraney,Clare,Republic of Ireland,Ireland's Hidden Hearthlands,Activity,Activity Operator,Tour,None,None,None,None
Dublin Art Life,http://dublinartlife.com,,LocalBusiness,TouristAttraction,-6.2603097,53.3498053,Dublin City,Dublin,Republic of Ireland,Activity,Art Gallery,Attraction,Museums and Attraction,None,None,None,None
Andaire Tours & Experiences,https://andaire.com/,353876265974,LocalBusiness,TravelAgency,-8.9355011,53.1632686,Kilcolgan,Galway,Republic of Ireland,Activity,Activity Operator,Tour,None,None,None,None,None
River Nore,,,LocalBusiness,TouristAttraction,-7.3441386,52.7294592,Kilkenny City,Kilkenny,Republic of Ireland,Activity,River,Attraction,Discovery Point,None,None,None,None
Hang Tough Contemporary,https://hangtoughcontemporary.com/,35315552234,LocalBusiness,TouristAttraction,-6.2639136,53.3429612,Dublin City,Dublin,Republic of Ireland,Activity,Art Gallery,Attraction,None,None,None,None,None
Tir na Glass,https://tirnaglass.com/,353863099621,LocalBusiness,SportsActivityLocation,-6.71098,52.9407807,Baltinglass,Wicklow,Republic of Ireland,Activity,Walking,Activity Operator,Tour,None,None,None,None
Louth English,https://www.louthenglish.ie/,353857770551,LocalBusiness,Not Available,-6.3825813,53.9835343,Dundalk,Louth,Republic of Ireland,Activity,Learning,None,None,None,None,None,None
Galway City's Medieval Walls,https://www.galwaycitymuseum.ie/medieval-galway/?locale=en,,LocalBusiness,TouristAttraction,-9.0499506,53.2731132,Galway City,Galway,Republic of Ireland,Activity,Attraction,Historic Houses and Castle,Ruins,None,None,None,None
The National Monument,,,LocalBusiness,TouristAttraction,-8.4745872,51.8960944,Cork City,Cork,Republic of Ireland,Activity,Tracing Your Ancestors,Attraction,Public Sculpture,None,None,None,None
Newport Railway Viaduct,,,LocalBusiness,TouristAttraction,-9.5449174,53.8843415,Newport,Mayo,Republic of Ireland,Activity,Attraction,Historic Houses and Castle,None,None,None,None,None
Mick O'Dwyer Statue,,,LocalBusiness,SportsActivityLocation,-10.1721644,51.8267389,Waterville,Kerry,Republic of Ireland,Activity,Gaa,Attraction,Public Sculpture,None,None,None,None
Charles De Gaulle Memorial,,,LocalBusiness,TouristAttraction,-9.9018436,51.8388355,Sneem,Kerry,Republic of Ireland,Activity,Attraction,Public Sculpture,None,None,None,None,None
Pikeman Statue,,,LocalBusiness,TouristAttraction,-9.7051622,52.269098,Tralee,Kerry,Republic of Ireland,Activity,Attraction,Public Sculpture,None,None,None,None,None
Cormac's Coast Tour of the Cliffs of Moher,https://www.cormacscoast.com,353876296957,LocalBusiness,SportsActivityLocation,-9.4097402,52.9714009,Liscannor,Clare,Republic of Ireland,Activity,Bird Watching,Nature and Wildlife,Learning,Photography,Walking,Activity Operator,Tour
North and West Coast Links,https://www.northandwestcoastlinks.com,35391868642,LocalBusiness,SportsActivityLocation,-9.1802675,53.3364672,Moycullen,Galway,Republic of Ireland,Activity,Golf,Activity Operator,Venue,Sports Venues,Tour,None,None
Dan OHaras Homestead - Connemara Heritage & History Centre,https://www.connemaraheritage.net/,3539521246,LocalBusiness,Museum,-9.9117698,53.4792441,Clifden,Galway,Republic of Ireland,Activity,Restaurant,Learning,Attraction,Museums and Attraction,Food and Drink,None,None
The Irish Workhouse Centre,http://www.irishworkhousecentre.ie,353909759200,LocalBusiness,Museum,-8.22380101827696,53.0988276375127,Portumna,Galway,Republic of Ireland,Ireland's Hidden Hearthlands,Activity,Attraction,Museums and Attraction,Food Shops,Shopping,Tour,None
Wild SUP Tours,https://www.wildsuptours.com/,353834766428,LocalBusiness,TravelAgency,-10.2754809,52.1394226,Dingle,Kerry,Republic of Ireland,Activity,Activity Operator,Day Tour,Tour,None,None,None,None
Atlantic Air Adventures,https://atlanticairadventures.com,35361363687,LocalBusiness,TravelAgency,-8.870205,52.713908,Shannon Town,Clare,Republic of Ireland,Activity,Learning,Activity Operator,Attraction,Museums and Attraction,None,None,None
Glenn Lucas Woodturning,http://www.glennlucas.com,353599727070,LocalBusiness,Store,-6.8687256,52.6550156,Bagenalstown,Carlow,Republic of Ireland,Activity,Craft,Shopping,Learning,Activity Operator,None,None,None
Aughnanure Castle,https://heritageireland.ie/visit/places-to-visit/aughnanure-castle/,35391552214,LocalBusiness,TouristAttraction,-9.2757515,53.4187829,Oughterard,Galway,Republic of Ireland,Activity,Castle,Attraction,Historic Houses and Castle,Tour,None,None,None
Michael Davitt Museum,http://www.michaeldavittmuseum.ie,353949031942,LocalBusiness,TouristAttraction,-9.1307741,53.921068,Foxford,Mayo,Republic of Ireland,Activity,Tracing Your Ancestors,Church Abbey,Monastery,Attraction,Churches,Abbeys and Monastery,Museums and Attraction
Holycross Abbey,http://www.holycrossabbey.ie,35350443124,LocalBusiness,TouristAttraction,-7.8681021,52.6395472,Holycross,Tipperary,Republic of Ireland,Activity,Church Abbey,Monastery,Attraction,Churches,Abbeys and Monastery,Food Shops,Shopping
Killarney Guided Tours,https://killarneyguidedtours.biz/,353872309567,LocalBusiness,SportsActivityLocation,-9.5300388,52.0772509,Killarney,Kerry,Republic of Ireland,Activity,Transport,Walking,Activity Operator,Tracing Your Ancestors,Tour,Coach,Road
The Spire,,,LocalBusiness,TouristAttraction,-6.260294,53.350921,Dublin City,Dublin,Republic of Ireland,Activity,Attraction,Public Sculpture,None,None,None,None,None
Racing Tours Ireland,http://www.racingtoursireland.com,353868591695,LocalBusiness,TravelAgency,-6.1348094,53.2607302,Killiney,Dublin,Republic of Ireland,Activity,Activity Operator,Tour,None,None,None,None,None
Pearse Street Library,https://www.dublincity.ie/residential/libraries/find-library/pearse-street-library,35312228431,LocalBusiness,TouristAttraction,-6.2452219,53.3431499,Dublin City,Dublin,Republic of Ireland,Activity,Tracing Your Ancestors,Attraction,Literary Ireland,None,None,None,None
6 Day Northern Ireland Tour - Vagabond Tours of Ireland,https://vagabondtoursofireland.com/tour/6-day-northern-ireland-tour,35314428559,LocalBusiness,TravelAgency,-6.26020515750122,53.3493056292935,Dublin City,Dublin,Republic of Ireland,Activity,Activity Operator,Tour,None,None,None,None,None
Leisureplex Tallaght,http://www.leisureplex.ie,35314599411,LocalBusiness,Not Available,-6.360474,53.286893,Tallaght,Dublin,Republic of Ireland,Activity,None,None,None,None,None,None,None
Patrick Kavanagh,,,LocalBusiness,TouristAttraction,-6.2475417,53.3336867,Dublin City,Dublin,Republic of Ireland,Activity,Attraction,Public Sculpture,None,None,None,None,None
Adventure Rooms Dublin,https://adventurerooms.ie/,35318727927,LocalBusiness,Not Available,-6.2704305,53.3496638,Dublin City,Dublin,Republic of Ireland,Activity,None,None,None,None,None,None,None
Easy Motion,https://easymotion.ie/,35314089999,LocalBusiness,SportsActivityLocation,-6.3490735,53.4135063,Blanchardstown,Dublin,Republic of Ireland,Activity,Cycling,None,None,None,None,None,None
F.X. Buckley Crow Street,https://www.thebuckleycollection.ie/crow-street,35316711248,LocalBusiness,FoodEstablishment,-6.2638828,53.3446014,Dublin City,Dublin,Republic of Ireland,Activity,Food and Drink,Restaurant,None,None,None,None,None
Explorium,https://explorium.ie,35319602000,LocalBusiness,SportsActivityLocation,-6.23729259372487,53.2670645420228,Sandymount,Dublin,Republic of Ireland,Activity,Learning,Adventure Park,Activity Operator,None,None,None,None
Cliffs of Moher Premium Tour  Irish Day Tours,https://www.irishdaytours.ie/cliffs-of-moher-tour-premium,35319073265,LocalBusiness,TravelAgency,-6.27473342757798,53.343111993316,Dublin City,Dublin,Republic of Ireland,Activity,Activity Operator,Tour,None,None,None,None,None
Clondalkin Leisure Centre,https://www.clondalkinleisure.com/,35314574858,LocalBusiness,Not Available,-6.399045,53.3218989,Clondalkin,Dublin,Republic of Ireland,Activity,Fitness and Leisure,Venue,None,None,None,None,None
Rural Pub Tours,https://ruraltours.ie/,35314958111,LocalBusiness,TravelAgency,-6.26089277657161,53.343616040715,Dublin City,Dublin,Republic of Ireland,Activity,Activity Operator,Tour,None,None,None,None,None
Derryglad Folk & Heritage Museum,https://www.derrygladfolkmuseum.com/,353906488192,LocalBusiness,Museum,-8.080592,53.4656574,Athlone,Roscommon,Republic of Ireland,Ireland's Hidden Hearthlands,Activity,Attraction,Museums and Attraction,None,None,None,None
Waterworld Tralee,https://www.waterworld.ie/,353667125803,LocalBusiness,TravelAgency,-9.70428,52.274089,Tralee,Kerry,Republic of Ireland,Activity,Activity Operator,Shopping,Food Shops,None,None,None,None
The Spa at Castleknock Hotel,https://www.castleknockhotel.com/thespa-at-castleknock-hotel.htm,35316406366,LocalBusiness,HealthClub,-6.3905238,53.3663865,Castleknock,Dublin,Republic of Ireland,Activity,Pampering,Health Farm,Spa and Wellness,Specialised Retreat,Spa,None,None
John Farrington Antiques,https://www.facebook.com/johnfarringtonantiques/,35316791899,LocalBusiness,ShoppingCenter,-6.2632477,53.342639,Dublin City,Dublin,Republic of Ireland,Activity,Shopping,Shopping Centres and Department Store,None,None,None,None,None
Breda Haugh Jeweller and Designer,https://bredahaugh.com/,35316705738,LocalBusiness,Store,-6.239407,53.341855,Dublin City,Dublin,Republic of Ireland,Activity,Craft,Shopping,Shopping Centres and Department Store,None,None,None,None
The Library Project,https://www.thelibraryproject.ie/,353897058784,LocalBusiness,ShoppingCenter,-6.2638907,53.3456182,Dublin City,Dublin,Republic of Ireland,Activity,Shopping,Shopping Centres and Department Store,None,None,None,None,None
Arnotts,https://www.arnotts.ie,35318050400,LocalBusiness,ShoppingCenter,-6.2631308,53.3491377,Dublin City,Dublin,Republic of Ireland,Activity,Shopping,Shopping Centres and Department Store,None,None,None,None,None
Arran Street East,https://arranstreeteast.ie/,35318729144,LocalBusiness,Store,-6.2704778,53.3483106,Dublin City,Dublin,Republic of Ireland,Activity,Craft,Shopping,Shopping Centres and Department Store,None,None,None,None
O'Reilly Theatre,https://www.oreillytheatre.com/,35318586690,LocalBusiness,Not Available,-6.2620851,53.3556337,Dublin City,Dublin,Republic of Ireland,Activity,None,None,None,None,None,None,None
Tipperary Excel Centre,https://www.tipperaryexcel.com/,3536280520,LocalBusiness,MovieTheater,-8.1601633,52.4749697,Tipperary Town,Tipperary,Republic of Ireland,Activity,Movies,Cinema,Venue,Tracing Your Ancestors,Art Gallery,Attraction,Museums and Attraction
Tinten Ceoil,http://www.cflt.ie/tintean/,353667138137,LocalBusiness,TravelAgency,-10.1714551,52.2567368,Cloghane,Kerry,Republic of Ireland,Activity,Activity Operator,Traditionally Irish,None,None,None,None,None
Achonry Farmers Market,https://www.achonryfarmersmarket.ie/,353877981827,LocalBusiness,Store,-8.6602689,54.0956912,,Sligo,Republic of Ireland,Activity,Craft,Shopping,Shopping Centres and Department Store,Artisan,Food and Drink,Restaurant,Local Produce
Killarney Tour,https://killarneytour.com/,353872508122,LocalBusiness,TravelAgency,-9.50838002550719,52.0576796917615,Killarney,Kerry,Republic of Ireland,Activity,Activity Operator,Tour,None,None,None,None,None
Abbeyfeale Farmers Market,https://www.iomst.ie/market/abbeyfeale-farmers-market/,353876866450,LocalBusiness,FoodEstablishment,-9.301963,52.384547,Abbeyfeale,Limerick,Republic of Ireland,Activity,Food and Drink,Restaurant,Shopping,Shopping Centres and Department Store,Food Shops,None,None
Altitude Cycle & Outdoor Store,http://www.altitude.ie,35351870356,LocalBusiness,SportsActivityLocation,-7.1187809,52.2602341,Waterford City,Waterford,Republic of Ireland,Activity,Cycling,Shopping,Shopping Centres and Department Store,Food Shops,None,None,None
Adare Woollens,https://adarewoollens.com/,35361396922,LocalBusiness,Store,-8.7898618,52.5646866,Adare,Limerick,Republic of Ireland,Activity,Craft,Shopping,Shopping Centres and Department Store,Food Shops,None,None,None
Boyne Valley Tours,http://www.boynevalleytours.com/,353878354805,LocalBusiness,TravelAgency,-6.3916485,53.6091281,Duleek,Meath,Republic of Ireland,Activity,Activity Operator,Tour,None,None,None,None,None
Lough Derg Blueway North,https://www.bluewaysireland.org/itineraries/lough-derg-blueway-north---portumna-,,LocalBusiness,SportsActivityLocation,-8.2185406,53.0927811,Portumna,Galway,Republic of Ireland,Ireland's Hidden Hearthlands,Activity,Cycling,Kayaking,Activity Operator,Walking,None,None
Athlone Towncentre Shopping Centre,https://athlonetowncentre.com/,353906484387,LocalBusiness,ShoppingCenter,-7.9359324,53.4239889,Athlone,Westmeath,Republic of Ireland,Ireland's Hidden Hearthlands,Activity,Shopping,Shopping Centres and Department Store,Food Shops,None,None,None
Avoca Painting School,https://avocagallery.ie/welcome-to-the-avoca-painting-school/,35340235555,LocalBusiness,Store,-6.227528,52.880018,Avoca,Wicklow,Republic of Ireland,Activity,Craft,Shopping,Learning,Activity Operator,None,None,None
Lough Gill,,,LocalBusiness,TouristAttraction,-8.3825281,54.2496856,Sligo Town,Sligo,Republic of Ireland,Activity,Natural Landscape,Attraction,None,None,None,None,None
Bellacragher Boat Club,https://bellacragherboatclub.ie/claggan-ferry-tour/,353876579348,LocalBusiness,SportsActivityLocation,-9.82844337699839,53.9674584269329,Westport,Mayo,Republic of Ireland,Activity,Cruising,Sailing,Activity Operator,Boat,Tour,None,None
Adelaide Memorial Church,http://www.myshalldrumphea.com/adelaide-church.htm,353599157671,LocalBusiness,TouristAttraction,-6.778635,52.684946,Myshall,Carlow,Republic of Ireland,Activity,Church Abbey,Monastery,Attraction,Churches,Abbeys and Monastery,None,None
Wexford Town Library,https://www.wexfordcoco.ie/libraries/opening-hours-and-branches/wexford-town-library,353539196760,LocalBusiness,TouristAttraction,-6.4636754,52.3390846,Wexford Town,Wexford,Republic of Ireland,Activity,Attraction,Literary Ireland,None,None,None,None,None
Ballyrafton Wood,,,LocalBusiness,TouristAttraction,-7.22985378107382,52.7216886568351,Kilkenny City,Kilkenny,Republic of Ireland,Activity,Public Park,Nature and Wildlife,None,None,None,None,None
Wild Irish Crafts,http://www.wild-irish.ie/,353539429286,LocalBusiness,Store,-6.5611956,52.7652792,Shillelagh,Wicklow,Republic of Ireland,Activity,Craft,Shopping,Shopping Centres and Department Store,Food Shops,None,None,None
Jameson Distillery Bow St.,https://www.jamesonwhiskey.com/en-ie/,35318072355,LocalBusiness,FoodEstablishment,-6.2773544,53.3483761,Dublin City,Dublin,Republic of Ireland,Activity,Food and Drink,Restaurant,Attraction,Museums and Attraction,None,None,None
Gormley's Fine Art,https://www.gormleys.ie/,35316729031,LocalBusiness,TouristAttraction,-6.2563903,53.342245,Dublin City,Dublin,Republic of Ireland,Activity,Art Gallery,Attraction,None,None,None,None,None
Lough Bunny,,,LocalBusiness,Not Available,-8.9246426,53.0220868,Corofin,Clare,Republic of Ireland,Activity,None,None,None,None,None,None,None
Wild Way Tours,https://www.facebook.com/pages/Wild-Way-Tours/1379690978996874?hc_location=ufi,353868233918,LocalBusiness,TravelAgency,-8.43918108650814,51.8737589676238,Kinsale,Cork,Republic of Ireland,Activity,Activity Operator,Tour,None,None,None,None,None
Zozimus Bar,https://zozimusbar.ie,35315369640,LocalBusiness,BarOrPub,-6.25973654328027,53.3405882807492,Dublin City,Dublin,Republic of Ireland,Activity,Food and Drink,Pubs and Bar,None,None,None,None,None
Waterford Crystal & Kilkenny City Tour - Railtours,https://railtoursireland.com/train-tour/waterford-crystal-kilkenny-city-/dh01,35318560045,LocalBusiness,TravelAgency,-6.250291,53.351003,Dublin City,Dublin,Republic of Ireland,Activity,Activity Operator,Tour,None,None,None,None,None
Sliabh Liag Distillers,https://www.sliabhliagdistillers.com/,353749739875,LocalBusiness,FoodEstablishment,-8.4079306,54.7615905,Ardara,Donegal,Republic of Ireland,Activity,Food and Drink,Restaurant,Attraction,Museums and Attraction,None,None,None
Dragon Tours Eire,https://dragon-tours-ireland.webnode.page/,,LocalBusiness,MovieTheater,-8.7295761,52.2909864,Mallow,Cork,Republic of Ireland,Activity,Movies,Cinema,Venue,Activity Operator,Tour,None,None
Leitrim Surf and SUP Company,https://www.leitrimsurf.ie/,353863494013,LocalBusiness,SportsActivityLocation,-8.0491087,54.0383276,Leitrim Village,Leitrim,Republic of Ireland,Ireland's Hidden Hearthlands,Activity,Surfing,Activity Operator,Day Tour,Tour,None,None
Waterford Camino Tours,https://waterfordcamino.com/,353879947921,LocalBusiness,SportsActivityLocation,-7.16744265082855,52.1624942092736,Tramore,Waterford,Republic of Ireland,Activity,Learning,Walking,Activity Operator,Tour,None,None,None
Ceann Mara Boats,https://www.ceannmaraboats.com/,353877110240,LocalBusiness,SportsActivityLocation,-9.5887374,51.8735994,Kenmare,Kerry,Republic of Ireland,Activity,Fishing,Angling,Activity Operator,Boat,Tour,None,None
The Paddocks Riding Centre,http://www.paddocks.ie,353872237981,LocalBusiness,SportsActivityLocation,-6.225428,53.250451,Sandyford,Dublin,Republic of Ireland,Activity,Horse Riding,Equestrian,None,None,None,None,None
Sneem Seaweed Baths,https://www.sneemseaweed.ie/index.html,353857845766,LocalBusiness,HealthClub,-9.9004488,51.8322496,Sneem,Kerry,Republic of Ireland,Activity,Spa,Spa and Wellness,None,None,None,None,None
Athlone Guided Tours,https://www.athloneguidedtours.ie/,353861963492,LocalBusiness,TravelAgency,-8.0053351,53.3758337,Athlone,Westmeath,Republic of Ireland,Ireland's Hidden Hearthlands,Activity,Activity Operator,Tour,Walking,None,None,None
Scattery Island Tours,http://scatteryislandtours.com,3530852505512,LocalBusiness,TravelAgency,-9.4950313,52.6350116,Kilrush,Clare,Republic of Ireland,Activity,Activity Operator,Boat,Tour,None,None,None,None
Tours of the Government Buildings,https://www.gov.ie/en/organisation-information/a2a095-tour-of-government-buildings/,35316194000,LocalBusiness,TravelAgency,-6.2539268,53.3393365,Dublin City,Dublin,Republic of Ireland,Activity,Activity Operator,Tour,None,None,None,None,None
Experience Gaelic Games Galway,https://experiencegaelicgames.com/galway/,35312544292,LocalBusiness,SportsActivityLocation,-9.0224301,53.270223,Galway City,Galway,Republic of Ireland,Activity,Gaa,Attraction,Learning,Activity Operator,None,None,None
The Molesworth Gallery,https://molesworthgallery.com/ ,35316791548,LocalBusiness,TouristAttraction,-6.2561563,53.341109,Dublin City,Dublin,Republic of Ireland,Activity,Art Gallery,Attraction,None,None,None,None,None
Inishturk,,,LocalBusiness,SportsActivityLocation,-10.1135408,53.7040432,Inishturk Island,Mayo,Republic of Ireland,Activity,Swimming,Swimming Pools and Water Park,Venue,Walking,Island,Attraction,Offshore Island
Rafting.ie,https://rafting.ie/,35316264363,LocalBusiness,TravelAgency,-6.3599534,53.3560109,Palmerstown,Dublin,Republic of Ireland,Activity,Activity Operator,None,None,None,None,None,None
The Perfect Pint Tour,https://theperfectpinttour.com/,353857391770,LocalBusiness,BarOrPub,-6.2603097,53.3498053,Dublin City,Dublin,Republic of Ireland,Activity,Food and Drink,Pubs and Bar,Tour,None,None,None,None
Zipit Tibradden Wood,https://www.zipit.ie/locations/tibradden-wood,35351858008,LocalBusiness,Not Available,-6.2958863,53.2439186,Rathfarnham,Dublin,Republic of Ireland,Activity,None,None,None,None,None,None,None
Surfdock Watersports,https://www.surfdock.com/,35316683945,LocalBusiness,Not Available,-6.2320035,53.3424948,Dublin City,Dublin,Republic of Ireland,Activity,None,None,None,None,None,None,None
Roundstone Bay and Island Boat and Food Tours,https://www.facebook.com/roundstonebayandisland/,353873460423,LocalBusiness,FoodEstablishment,-9.9183169,53.3964812,Roundstone,Galway,Republic of Ireland,Activity,Food and Drink,Restaurant,Activity Operator,Local Produce,Seafood,Boat,Tour
Courtmacsherry Angling Ltd.,http://www.courtmacsherryangling.ie,353876381003,LocalBusiness,SportsActivityLocation,-8.710364,51.635541,Courtmacsherry,Cork,Republic of Ireland,Activity,Fishing,Angling,Activity Operator,Boat,Tour,None,None
Bargetrip.ie - Canal Boat Tour,https://www.bargetrip.ie/,353876465465,LocalBusiness,SportsActivityLocation,-6.6648101,53.2490957,Sallins,Kildare,Republic of Ireland,Activity,Cruising,Activity Operator,Boat,Tour,None,None,None
Alchemy Tours,https://alchemytours.ie,353862596887,LocalBusiness,SportsActivityLocation,-10.0836632,54.1401956,Ballina,Mayo,Republic of Ireland,Activity,Walking,Activity Operator,Tour,None,None,None,None
Dublin Decoded Walking Tours,https://dublindecoded.com/,353874171460,LocalBusiness,TravelAgency,-6.2689663,53.3362358,Dublin City,Dublin,Republic of Ireland,Activity,Activity Operator,Tour,None,None,None,None,None
Dublin Falconry,https://www.dublinfalconry.ie/,353876341574,LocalBusiness,Not Available,-6.4222378,53.3794206,Castleknock,Dublin,Republic of Ireland,Activity,Falconry,Nature and Wildlife,None,None,None,None,None
Balheary Shooting,http://www.balhearyshootinggrounds.com,35318078814,LocalBusiness,Not Available,-6.273701,53.4906652,Swords,Dublin,Republic of Ireland,Activity,None,None,None,None,None,None,None
Golf at Glenlo Abbey Hotel and Estate,https://glenloabbeyhotel.ie/golf-at-glenlo-abbey/,35391519649,LocalBusiness,SportsActivityLocation,-9.0992916,53.301433,Galway City,Galway,Republic of Ireland,Golf Course,Activity,Golf,Activity Operator,None,None,None,None
Wild Atlantic Cycling Ltd - Tours,https://www.wildatlanticcycling.com/collections/ireland,4407763675381,LocalBusiness,SportsActivityLocation,-9.70954833173823,51.4937338193113,Goleen,Cork,Republic of Ireland,Activity,Cycling,Activity Operator,Tour,None,None,None,None
Ennis Walking Tours,http://www.enniswalkingtours.com,3530876483714,LocalBusiness,SportsActivityLocation,-8.9818,52.8442,Ennis,Clare,Republic of Ireland,Activity,Learning,Walking,Activity Operator,Tour,None,None,None
Dingle Horse Riding,https://www.dinglehorseriding.com/,353868211225,LocalBusiness,SportsActivityLocation,-10.281271,52.151897,Dingle,Kerry,Republic of Ireland,Activity,Horse Riding,Equestrian,Activity Operator,None,None,None,None
Coole Park Visitor Centre & Gardens,https://www.coolepark.ie/,353091631804,LocalBusiness,SportsActivityLocation,-8.8379317,53.0926546,Gort,Galway,Republic of Ireland,Ireland's Hidden Hearthlands,Activity,Walking,Public Park,Nature and Wildlife,Ruins,Attraction,Historic Houses and Castle
Birdwatching at the Cliffs of Moher,http://www.clarebirdwatching.com/archives/category/clare-birdwatching-sites-a-b/page/2,,LocalBusiness,Not Available,-9.42637,52.971778,Liscannor,Clare,Republic of Ireland,Activity,Bird Watching,Nature and Wildlife,None,None,None,None,None
Danny Vincent Smith Studio,http://dannyvincentsmith.com,353863986895,LocalBusiness,Store,-9.4486452,51.6831999,Bantry,Cork,Republic of Ireland,Activity,Craft,Shopping,Food Shops,None,None,None,None
Abbeyderg Abbey and Graveyard,https://www.longford.ie/en/visit/explore-the-past/abbeyderg-abbey/abbeyderg-abbey.html,353433346566,LocalBusiness,TouristAttraction,-7.7871889,53.6382337,Kenagh,Longford,Republic of Ireland,Ireland's Hidden Hearthlands,Activity,Photography,Learning,Attraction,Historic Houses and Castle,Church Abbey,Monastery
Cloyne Round Tower,http://cloyne.ie/about/round-tower,353214652561,LocalBusiness,TouristAttraction,-8.1202974,51.8620116,Cloyne,Cork,Republic of Ireland,Activity,Church Abbey,Monastery,Attraction,Churches,Abbeys and Monastery,None,None
Jackie Mahon Angling Guide & Flytier,https://www.jackiemahonfliesandguiding.com/,353879222458,LocalBusiness,SportsActivityLocation,-8.4760888,54.2766103,Sligo Town,Sligo,Republic of Ireland,Activity,Fishing,Angling,Activity Operator,None,None,None,None
Donegal Town Walking Tours,https://www.facebook.com/donegaltownwalkingtours,353863931415,LocalBusiness,TravelAgency,-8.1115482,54.6521961,Donegal Town,Donegal,Republic of Ireland,Activity,Activity Operator,Tour,Walking,None,None,None,None
Nenagh Golf Club,https://www.nenaghgolfclub.com/,3536731476,LocalBusiness,SportsActivityLocation,-8.129713,52.9032206,Nenagh,Tipperary,Republic of Ireland,Golf Course,Ireland's Hidden Hearthlands,Activity,Golf,None,None,None,None
Calliaghstown Equestrian Centre,https://www.calliaghstownequestriancentre.ie,353872725913,LocalBusiness,SportsActivityLocation,-6.5061647,53.2496301,Rathcoole,Dublin,Republic of Ireland,Activity,Horse Riding,Equestrian,None,None,None,None,None
Offshore Surf School,http://www.offshoresurfschool.ie,353872946519,LocalBusiness,SportsActivityLocation,-9.9689189261708,52.1476306304066,Inch,Kerry,Republic of Ireland,Activity,Surfing,Activity Operator,None,None,None,None,None
The Royal Dublin Golf Club,https://www.theroyaldublingolfclub.com/,35318336346,LocalBusiness,SportsActivityLocation,-6.1703587,53.3564795,Dublin City,Dublin,Republic of Ireland,Activity,Golf,None,None,None,None,None,None
Golf Chumann Ceann Sibal,https://dinglelinks.com/,353669156255,LocalBusiness,SportsActivityLocation,-10.4425907,52.1798793,Ballyferriter,Kerry,Republic of Ireland,Golf Course,Activity,Golf,Activity Operator,None,None,None,None
An Bhinn Bhu (Benwee Head),,,LocalBusiness,Not Available,-9.8188889,54.3366667,Belmullet,Mayo,Republic of Ireland,Activity,None,None,None,None,None,None,None
Eamonn Ceannt Park,https://www.dublincity.ie/residential/parks/dublin-city-parks/visit-park/eamonn-ceannt-park,35312225278,LocalBusiness,TouristAttraction,-6.2922037,53.3231477,Dublin City,Dublin,Republic of Ireland,Activity,Public Park,Nature and Wildlife,None,None,None,None,None
Tierney Cycles & Fishing,https://www.clarebikehire.com/,353656829433,LocalBusiness,SportsActivityLocation,-8.9822398,52.8447758,Ennis,Clare,Republic of Ireland,Activity,Cycling,Shopping,Bike Rental,None,None,None,None
HikingIreland.ie,http://hikingireland.ie/index.html,353866030482,LocalBusiness,SportsActivityLocation,-6.1712382,53.5224747,Lusk,Dublin,Republic of Ireland,Activity,Walking,Day Tour,Tour,None,None,None,None
Elmgreen Golf Centre,https://www.facebook.com/elmgreengolf,35318200797,LocalBusiness,SportsActivityLocation,-6.3492232,53.3869672,Castleknock,Dublin,Republic of Ireland,Activity,Golf,None,None,None,None,None,None
James Joyce Walking Tour,http://www.jamesjoyce.ie,35318788547,LocalBusiness,TravelAgency,-6.259988,53.354157,Dublin City,Dublin,Republic of Ireland,Activity,Activity Operator,Tour,None,None,None,None,None
Dublin Mini Coaches & Chauffeur Drive,https://www.dublinminicoaches.com/,3531861780049,LocalBusiness,Not Available,-6.348238,53.330439,Dublin City,Dublin,Republic of Ireland,Activity,None,None,None,None,None,None,None
Tullyboy Farm,http://www.tullyboyfarm.com,353876325293,LocalBusiness,SportsActivityLocation,-8.240407,53.939278,Boyle,Roscommon,Republic of Ireland,Ireland's Hidden Hearthlands,Activity,Agriculture,Nature and Wildlife,Horse Riding,Equestrian,Attraction,Museums and Attraction
Curraghduff Farm,https://www.curraghduffalpacas.com/,353873968305,LocalBusiness,SportsActivityLocation,-9.4097531,53.4756443,Oughterard,Galway,Republic of Ireland,Activity,Agriculture,Nature and Wildlife,Learning,Walking,Visitor Farm,Attraction,Tour
Carrickmines Golf Club,https://carrickminesgolfclub.ie,35312955972,LocalBusiness,SportsActivityLocation,-6.1711034,53.247791,Carrickmines,Dublin,Republic of Ireland,Activity,Golf,None,None,None,None,None,None
Swords Open Golf Course,https://www.swordsgolfclub.ie/,35318432302,LocalBusiness,SportsActivityLocation,-6.2722592,53.4871351,Swords,Dublin,Republic of Ireland,Activity,Golf,None,None,None,None,None,None
Donabate Golf Club,https://donabategolfclub.com/,35318436346,LocalBusiness,SportsActivityLocation,-6.126744,53.479945,Donabate,Dublin,Republic of Ireland,Activity,Golf,None,None,None,None,None,None
The LAB Gallery,https://www.facebook.com/thelabgallerydublin,35312225455,LocalBusiness,TouristAttraction,-6.25321559174881,53.3515271473688,Dublin City,Dublin,Republic of Ireland,Activity,Art Gallery,Attraction,None,None,None,None,None
Scubadive West,http://www.scubadivewest.com,3539543922,LocalBusiness,TravelAgency,-9.8730401,53.6154059,Renvyle,Galway,Republic of Ireland,Activity,Activity Operator,None,None,None,None,None,None
Lough Boora Discovery Park - Fairy Trail,https://www.loughboora.com/things-to-do/fairy-avenue,353579340010,LocalBusiness,SportsActivityLocation,-7.726802,53.220112,Tullamore,Offaly,Republic of Ireland,Ireland's Hidden Hearthlands,Activity,Walking,Activity Operator,Cafe,Food and Drink,None,None
Dan & Donal McCrohan Boat Operators,https://www.facebook.com/pages/Skellig-Boat/252393701593721,353872906168,LocalBusiness,SportsActivityLocation,-10.36194,51.8854295,Valentia Island,Kerry,Republic of Ireland,Activity,Bird Watching,Nature and Wildlife,Cruising,Activity Operator,Boat,Tour,None
Rathfran Abbey,,,LocalBusiness,TouristAttraction,-9.2443426,54.238044,Killala,Mayo,Republic of Ireland,Activity,Attraction,Historic Houses and Castle,Church Abbey,Monastery,Churches,Abbeys and Monastery,Ruins
Castleconnell Fishery,http://www.fishinginireland.info/salmon/shannon/castleconnell.htm,353061345589,LocalBusiness,SportsActivityLocation,-8.615338,52.706373,Ardnacrusha,Clare,Republic of Ireland,Activity,Fishing,Angling,Activity Operator,None,None,None,None
Donegal Garden Trail,http://www.donegalgardentrail.com/,353879895099,LocalBusiness,TouristAttraction,-8.1102391,54.6537983,Donegal Town,Donegal,Republic of Ireland,Activity,Gardening,Nature and Wildlife,Gardens,Attraction,Garden,None,None
From Fionn MacCumhail to Com Dhneol,http://www.celticnature.com,3530877903950,LocalBusiness,SportsActivityLocation,-10.3171166807007,52.141915241877,Dingle,Kerry,Republic of Ireland,Activity,Walking,Activity Operator,Tour,None,None,None,None
Adventure Gently,http://www.adventuregently.com,353851821547,LocalBusiness,SportsActivityLocation,-8.3012295257849,54.2304964391538,Dromahair,Leitrim,Republic of Ireland,Ireland's Hidden Hearthlands,Activity,Kayaking,Activity Operator,None,None,None,None
Basecamp Action Adventure Park,http://www.basecampadventurepark.ie,353879305050,LocalBusiness,TravelAgency,-9.14127042093378,52.551222716575,Shanagolden,Limerick,Republic of Ireland,Activity,Activity Operator,None,None,None,None,None,None
Clare Island Adventures,http://www.clareislandadventures.ie,353874108706,LocalBusiness,SportsActivityLocation,-9.9881419536732,53.7924554847732,Clare Island,Mayo,Republic of Ireland,Activity,Transport,Climbing,Activity Operator,Venue,Sports Venues,Coach,Road
Sliabh Liag Boat Tours,https://sliabhleagueboattrips.com/,353876284688,LocalBusiness,SportsActivityLocation,-8.631777,54.623525,Teelin,Donegal,Republic of Ireland,Activity,Cruising,Fishing,Angling,Activity Operator,Boat,Tour,None
Splash Sports,http://splashsports.ie,353872778236,LocalBusiness,SportsActivityLocation,-10.0259199,52.2801818,Castlegregory,Kerry,Republic of Ireland,Activity,Kayaking,Activity Operator,Kitesurfing,Windsurfing,Surfing,None,None
Jaws Watersports,https://www.jawswatersports.ie,353861735109,LocalBusiness,SportsActivityLocation,-7.973306,55.182843,Dunfanaghy,Donegal,Republic of Ireland,Activity,Kayaking,Activity Operator,Surfing,None,None,None,None
Suesey Street Restaurant,https://www.sueseystreet.ie/,35316694600,LocalBusiness,FoodEstablishment,-6.2527972,53.3326583,Dublin City,Dublin,Republic of Ireland,Activity,Food and Drink,Restaurant,None,None,None,None,None
Midland Karting,http://actionsports.ie,353436671308,LocalBusiness,TravelAgency,-7.5933471,53.7191342,Edgeworthstown,Longford,Republic of Ireland,Ireland's Hidden Hearthlands,Activity,Activity Operator,None,None,None,None,None
Cunnigar Pitch & Putt Club,http://www.cunnigarpitchandputt.ie/,353879412570,LocalBusiness,SportsActivityLocation,-7.621926,52.084042,Dungarvan,Waterford,Republic of Ireland,Activity,Golf,Pitch And Putt,General,Pitch and Putt,Activity Operator,None,None
Guided Killarney Walks,http://guidedkillarneytours.com,3530876329085,LocalBusiness,SportsActivityLocation,-9.51143003243328,52.0580742621121,Killarney,Kerry,Republic of Ireland,Activity,Walking,Activity Operator,Tour,None,None,None,None
Donegal Coastal Tours,http://donegaltours.com/,353872620670,LocalBusiness,TravelAgency,-8.1098823,54.6539997,Donegal Town,Donegal,Republic of Ireland,Activity,Transport,Activity Operator,Tour,Coach,Road,None,None
Mirtn  Conghaile Walks,https://www.facebook.com/people/Mairtin-O-Conghaile/100009898442353,3530876394320,LocalBusiness,SportsActivityLocation,-9.66859756391148,53.2902943822425,Lettermore,Galway,Republic of Ireland,Activity,Walking,Activity Operator,Tour,None,None,None,None
Castlemartyr Resort,http://www.castlemartyrresort.ie/golf-ireland/,353214219001,LocalBusiness,SportsActivityLocation,-8.0631582,51.9112025,Castlemartyr,Cork,Republic of Ireland,Golf Course,Activity,Golf,Activity Operator,None,None,None,None
Galway Tourist Train,https://www.facebook.com/GalwayTouristTrain/,353872188314,LocalBusiness,TravelAgency,-9.04911849812208,53.2749472285752,Galway City,Galway,Republic of Ireland,Activity,Activity Operator,Tour,None,None,None,None,None
Freedive Ireland,http://www.freediveireland.com,353868099898,LocalBusiness,TravelAgency,-8.44929196227068,54.4664257440643,Mullaghmore,Sligo,Republic of Ireland,Activity,Learning,Activity Operator,None,None,None,None,None
Spiller's Lane Craft Shop & Art Gallery,https://www.facebook.com/SpillersLaneGallery/,353238834815,LocalBusiness,Store,-8.8912449,51.6228351,Clonakilty,Cork,Republic of Ireland,Activity,Craft,Shopping,Shopping Centres and Department Store,Food Shops,None,None,None
IT Sligo Farmers Market,https://www.facebook.com/SligoFarmersMarket/,353719147007,LocalBusiness,ShoppingCenter,-8.458492,54.278091,Sligo Town,Sligo,Republic of Ireland,Activity,Shopping,Shopping Centres and Department Store,Food Shops,None,None,None,None
Heir Island Ferries,https://www.heirislandferries.com/,353868887799,LocalBusiness,Not Available,-9.42457224452971,51.5038565107262,Heir Island,Cork,Republic of Ireland,Activity,Transport,Coach,Road,None,None,None,None
Ballymascanlon Golf Course,https://www.ballymascanlon.com/golf.html,353429358200,LocalBusiness,SportsActivityLocation,-6.3525385,54.0315551,Dundalk,Louth,Republic of Ireland,Golf Course,Activity,Golf,Activity Operator,None,None,None,None
Skellig Tours,https://skelligtours.com,353876898431,LocalBusiness,SportsActivityLocation,-10.151506,51.7655656,Caherdaniel,Kerry,Republic of Ireland,Activity,Cruising,Activity Operator,Boat,Tour,None,None,None
Clare Kayak Hire,http://www.clarekayakhire.com/,353851485856,LocalBusiness,SportsActivityLocation,-9.3379276,52.9323039,Lahinch,Clare,Republic of Ireland,Activity,Kayaking,Activity Operator,Tour,None,None,None,None
WhiteRiver Park Ltd,https://whiteriver.ie/,353419819100,LocalBusiness,TravelAgency,-6.469917,53.800854,Collon,Louth,Republic of Ireland,Activity,Activity Operator,Venue,Sports Venues,None,None,None,None
Learn to Paint with Dermot Cavanagh,https://learntopaintwithdermotcavanagh.com/ireland-painting-courses/,442887784166,LocalBusiness,Store,-7.83405508621331,55.1945622504057,Downings,Donegal,Republic of Ireland,Activity,Craft,Shopping,Learning,Activity Operator,None,None,None
Caher Bridge Garden,https://www.facebook.com/pages/Caher-Bridge-Garden/173040762714810,353657076225,LocalBusiness,TouristAttraction,-9.2510881,53.118571,Fanore,Clare,Republic of Ireland,Activity,Gardening,Nature and Wildlife,Gardens,Attraction,Garden,None,None
Irish Pike Fishing Guides,https://www.irishpikefishingguides.com/,353863937182,LocalBusiness,SportsActivityLocation,-7.0823541,54.0725034,Cootehill,Cavan,Republic of Ireland,Ireland's Hidden Hearthlands,Activity,Fishing,Angling,Activity Operator,None,None,None
Annaharvey Farm Equestrian Centre,http://www.annaharveyfarm.ie,353579343544,LocalBusiness,SportsActivityLocation,-7.39603,53.252068,Tullamore,Offaly,Republic of Ireland,Ireland's Hidden Hearthlands,Activity,Horse Riding,Equestrian,Activity Operator,None,None,None
Beauty Rooms at Mount Falcon Estate,https://www.mountfalcon.com/spa.html,3539674472,LocalBusiness,HealthClub,-9.1566114,54.0565855,Ballina,Mayo,Republic of Ireland,Activity,Pampering,Health Farm,Spa and Wellness,Specialised Retreat,Spa,None,None
Dhu Varren Garden,http://www.dhuvarrengarden.com,353876104492,LocalBusiness,TouristAttraction,-9.696926,52.1342514,Milltown,Kerry,Republic of Ireland,Activity,Gardening,Nature and Wildlife,Gardens,Attraction,Garden,None,None
Paddle and Sea,https://www.facebook.com/PaddleandSea/,353833893972,LocalBusiness,SportsActivityLocation,-10.2315708,51.9479744,Cahersiveen,Kerry,Republic of Ireland,Activity,Kayaking,Activity Operator,None,None,None,None,None
Bantry Bay Golf Club,http://www.bantrygolf.com,3532750579,LocalBusiness,SportsActivityLocation,-9.4434059,51.699677,Bantry,Cork,Republic of Ireland,Golf Course,Activity,Golf,None,None,None,None,None
Celbridge Elm Hall Golf Club,http://www.celbridgeelmhallgolfclub.ie,35316288208,LocalBusiness,SportsActivityLocation,-6.511164,53.339503,Celbridge,Kildare,Republic of Ireland,Golf Course,Activity,Golf,Pitch And Putt,General,Pitch and Putt,Activity Operator,None
Tick-Tock Activity Farm,https://www.facebook.com/ticktockactivityfarm/,35340233624,LocalBusiness,TouristAttraction,-6.2344472,52.7937503,Arklow,Wicklow,Republic of Ireland,Activity,Visitor Farm,Attraction,Cafe,Food and Drink,Activity Operator,None,None
Newport House Hotel Fishing Holidays,http://www.newporthouse.ie/fishing.html,35309841222,LocalBusiness,SportsActivityLocation,-9.547982,53.884955,Newport,Mayo,Republic of Ireland,Activity,Fishing,Angling,Activity Operator,Venue,Sports Venues,None,None
St. Columb's Gardens,http://www.donegalgardentrail.com/site/?page_id=2320,353749137071,LocalBusiness,TouristAttraction,-7.9031983,55.0044336,Churchill,Donegal,Republic of Ireland,Activity,Gardening,Nature and Wildlife,Gardens,Attraction,Garden,None,None
Corrib Canoe,http://www.corribcanoe.com,353857868717,LocalBusiness,SportsActivityLocation,-9.05304525653924,53.2687353176377,Galway City,Galway,Republic of Ireland,Activity,Kayaking,Activity Operator,Learning,None,None,None,None
Youghal Deep Sea Angling,https://www.seahunter.ie/,3532490437,LocalBusiness,SportsActivityLocation,-7.85536,51.9416,Youghal,Cork,Republic of Ireland,Activity,Fishing,Angling,Activity Operator,None,None,None,None
Sean Kelly Sports Centre,https://www.facebook.com/Seankellycentre/,35351640955,LocalBusiness,SportsActivityLocation,-7.3937052,52.351316,Carrick-on-Suir,Tipperary,Republic of Ireland,Activity,Swimming,Swimming Pools and Water Park,Venue,Fitness and Leisure,Swimming Pool,None,None
Clara Lara Fun Park,http://www.claralara.ie,35340446161,LocalBusiness,SportsActivityLocation,-6.2775399,52.9746081,Rathdrum,Wicklow,Republic of Ireland,Activity,Kayaking,Activity Operator,Swimming,Swimming Pools and Water Park,Venue,Zip Lining,Adventure Park
Great Lighthouses of Ireland,https://www.greatlighthouses.com/                                                                                               ,35312715400,LocalBusiness,Not Available,-6.139118,53.296741,Dn Laoghaire,Dublin,Republic of Ireland,Activity,None,None,None,None,None,None,None
Dingle Sailing Centre,http://www.dinglesailingclub.com,353669152603,LocalBusiness,SportsActivityLocation,-10.2783279,52.1385614,Dingle,Kerry,Republic of Ireland,Activity,Sailing,Activity Operator,None,None,None,None,None
Rathfarnham Castle,https://heritageireland.ie/visit/places-to-visit/rathfarnham-castle/,35314939462,LocalBusiness,TouristAttraction,-6.2836302,53.2980764,Rathfarnham,Dublin,Republic of Ireland,Activity,Castle,Attraction,Historic Houses and Castle,None,None,None,None
Cappanalea Outdoor Education Centre,https://www.cappanalea.ie,353669769244,LocalBusiness,SportsActivityLocation,-9.853169,52.046932,Killorglin,Kerry,Republic of Ireland,Activity,Climbing,Activity Operator,Kayaking,Walking,Adventure Park,None,None
Blessington Lakes Golf Club,http://www.blessingtonlakesgolfclub.com,35345867146,LocalBusiness,SportsActivityLocation,-6.540298,53.124422,Blessington,Wicklow,Republic of Ireland,Golf Course,Activity,Golf,Activity Operator,None,None,None,None
Burren Outdoor Education Centre,http://www.burrenoec.com,353657078066,LocalBusiness,SportsActivityLocation,-9.069354,53.100577,Bellharbour,Clare,Republic of Ireland,Activity,Climbing,Activity Operator,Kayaking,Learning,None,None,None
Fiddlers Retreat,http://www.fiddlersretreat.com,353868099661,LocalBusiness,TravelAgency,-7.82409798264878,52.7568935173768,Templemore,Tipperary,Republic of Ireland,Activity,Learning,Activity Operator,Traditionally Irish,None,None,None,None
Larchill Arcadian Gardens,https://larchill.ie/,35316287354,LocalBusiness,TouristAttraction,-6.6588015,53.4411683,Kilcock,Kildare,Republic of Ireland,Activity,Attraction,Historic Houses and Castle,Gardens,Garden,Tour,None,None
Dunfanaghy Stables Ltd.,http://www.dunfanaghystables.com/,353749100980,LocalBusiness,SportsActivityLocation,-7.969928,55.183295,Dunfanaghy,Donegal,Republic of Ireland,Activity,Horse Riding,Equestrian,Activity Operator,None,None,None,None
Templemore Golf Course,http://templemoregolfclub.ie,35350431400,LocalBusiness,SportsActivityLocation,-7.8420754,52.7894963,Templemore,Tipperary,Republic of Ireland,Golf Course,Activity,Golf,None,None,None,None,None
Buncrana Golf Club,http://www.buncranagolfclub.com,353749362279,LocalBusiness,SportsActivityLocation,-7.4583063,55.1278622,Buncrana,Donegal,Republic of Ireland,Golf Course,Activity,Golf,None,None,None,None,None
Dublin Discovered Boat Tours,https://dublindiscovered.ie/,35314730000,LocalBusiness,TravelAgency,-6.2481489,53.3478293,Dublin City,Dublin,Republic of Ireland,Activity,Activity Operator,Boat,Tour,None,None,None,None
Fethard Horse Country Experience,https://fhcexperience.ie/,353526130439,LocalBusiness,SportsActivityLocation,-7.6951869,52.4659793,Fethard,Tipperary,Republic of Ireland,Activity,Horse Riding,Equestrian,Attraction,Historic Houses and Castle,Museums and Attraction,Venue,Sports Venues
Lr Na Pirce Museum - The Story of Gaelic Games,http://larnapairce.ie,35350422702,LocalBusiness,SportsActivityLocation,-7.8130745,52.6782242,Thurles,Tipperary,Republic of Ireland,Activity,Gaa,Attraction,Museums and Attraction,Venue,Sports Venues,None,None
Ross Golf Course,https://www.facebook.com/RossGolfCourse/,353646631125,LocalBusiness,SportsActivityLocation,-9.514396,52.048793,Killarney,Kerry,Republic of Ireland,Golf Course,Activity,Golf,Activity Operator,None,None,None,None
THE VENUE Theatre,https://www.thevenueratoath.ie/,35316895600,LocalBusiness,Store,-6.461288,53.507389,Ratoath,Meath,Republic of Ireland,Activity,Craft,Shopping,Activity Operator,Venue,Music,None,None
Morton's,https://www.mortons.ie/,35314971254,LocalBusiness,ShoppingCenter,-6.261878,53.3336067,Dublin City,Dublin,Republic of Ireland,Activity,Food and Drink,Shopping,Shopping Centres and Department Store,None,None,None,None
Kilkenny Ghost Tours,https://www.kilkennyghosttours.com/,353851706978,LocalBusiness,TravelAgency,-7.25144120370487,52.6515765175236,Kilkenny City,Kilkenny,Republic of Ireland,Activity,Activity Operator,Tour,None,None,None,None,None
Arklow Maritime Museum,https://www.arklowmaritimeheritage.ie/,353864460784,LocalBusiness,Museum,-6.1493991,52.7985048,Arklow,Wicklow,Republic of Ireland,Activity,Attraction,Museums and Attraction,None,None,None,None,None
Jerpoint Glass Studio,https://www.jerpointglass.com/,353567724350,LocalBusiness,Store,-7.1967314,52.5185184,Thomastown,Kilkenny,Republic of Ireland,Activity,Craft,Shopping,Shopping Centres and Department Store,Art Gallery,Attraction,Food Shops,None
Wilde Irish Chocolates,https://wildeirishchocolates.com/,35361922080,LocalBusiness,FoodEstablishment,-8.5456243,52.8977841,Tuamgraney,Clare,Republic of Ireland,Ireland's Hidden Hearthlands,Activity,Food and Drink,Restaurant,Shopping,Shopping Centres and Department Store,Food Shops,None
Kerr's Bookshop,http://www.kerrsbookshop.ie/,353238834342,LocalBusiness,ShoppingCenter,-8.8869602,51.6232219,Clonakilty,Cork,Republic of Ireland,Activity,Shopping,Shopping Centres and Department Store,Food Shops,None,None,None,None
An Evening of Irish Folklore and Fairies,https://irishfolktours.com/,353868265312,LocalBusiness,BarOrPub,-6.2636588,53.3438235,Dublin City,Dublin,Republic of Ireland,Activity,Food and Drink,Pubs and Bar,None,None,None,None,None
Giovanna's Restaurant,https://giovannaswestport.ie/,3539828338,LocalBusiness,FoodEstablishment,-9.5217346,53.7993225,Westport,Mayo,Republic of Ireland,Activity,Food and Drink,Restaurant,None,None,None,None,None
Wild Atlantic Campers,https://wildatlanticcamperhire.ie/,353894252780,LocalBusiness,Not Available,-8.92864926322261,53.2673644742174,Oranmore,Galway,Republic of Ireland,Activity,Transport,Coach,Road,None,None,None,None
Aileach Restaurant at the Clanree Hotel,https://www.clanreehotel.com/CarveryCoffeeDock.html,353749124369,LocalBusiness,FoodEstablishment,-7.6983954,54.9436594,Letterkenny,Donegal,Republic of Ireland,Activity,Food and Drink,Restaurant,None,None,None,None,None
Barr An Chaladh,https://www.facebook.com/barranchaladh,35391895762,LocalBusiness,BarOrPub,-9.0527779,53.2752805,Galway City,Galway,Republic of Ireland,Activity,Food and Drink,Venue,Music,Pubs and Bar,None,None,None
Irish College of English,https://www.iceireland.com/,35318453744,LocalBusiness,Not Available,-6.1531617,53.4501357,Malahide,Dublin,Republic of Ireland,Activity,Learning,None,None,None,None,None,None
Doneraile Estate,https://heritageireland.ie/places-to-visit/doneraile-wildlife-park/,353469423175,LocalBusiness,TouristAttraction,-8.583008,52.2162916,Doneraile,Cork,Republic of Ireland,Ireland's Hidden Hearthlands,Activity,Attraction,Historic Houses and Castle,Public Park,Nature and Wildlife,Cafe,Food and Drink
Ballymaloe House Restaurant,https://www.ballymaloe.ie/our-restaurant-cork/our-restaurant,353214652531,LocalBusiness,FoodEstablishment,-8.0733299,51.8652496,Shanagarry,Cork,Republic of Ireland,Activity,Food and Drink,Restaurant,Artisan,Local Produce,Seafood,Vegetarian,None
Zita's Restaurant at the Caislein Oir Hotel,http://www.donegalhotel.ie/restaurant,353749548113,LocalBusiness,BarOrPub,-8.3252462,55.0208676,Annagry,Donegal,Republic of Ireland,Activity,Food and Drink,Restaurant,Pubs and Bar,None,None,None,None
Ballymaloe Cookery School,https://www.ballymaloecookeryschool.ie/,353214646785,LocalBusiness,CafeOrCoffeeShop,-8.0334393,51.8603674,Shanagarry,Cork,Republic of Ireland,Activity,Cooking,Cookery,Learning,Cafe,Food and Drink,Activity Operator,None
Rathdowney Golf Club,https://www.rathdowneygolfclub.com/,35350546170,LocalBusiness,SportsActivityLocation,-7.5749308,52.8486472,Rathdowney,Laois,Republic of Ireland,Golf Course,Activity,Golf,Activity Operator,None,None,None,None
Mountrath Golf Club,https://www.mountrathgolfclub.ie/,353578732558,LocalBusiness,SportsActivityLocation,-7.479549,52.9791394,Mountrath,Laois,Republic of Ireland,Golf Course,Activity,Golf,Activity Operator,None,None,None,None
Goatsbridge Trout Farm,https://www.facebook.com/goatsbridgetrout,353567724140,LocalBusiness,ShoppingCenter,-7.170467,52.5064,Thomastown,Kilkenny,Republic of Ireland,Activity,Shopping,Shopping Centres and Department Store,Food Shops,None,None,None,None
Bridgie Terries Bar & Restaurant,https://www.facebook.com/bridgieterries,35351291324,LocalBusiness,FoodEstablishment,-7.5619317,52.1245194,Dungarvan,Waterford,Republic of Ireland,Activity,Food and Drink,Restaurant,Seafood,None,None,None,None
Wrights Findlater Howth,https://findlater.ie/,35318324488,LocalBusiness,BarOrPub,-6.0723663,53.3885945,Howth,Dublin,Republic of Ireland,Activity,Food and Drink,Restaurant,Pubs and Bar,None,None,None,None
Derrymore Beach,,,LocalBusiness,TouristAttraction,-9.8583473,52.237877,Derrymore,Kerry,Republic of Ireland,Activity,Attraction,Beach,None,None,None,None,None
Cahore Beach,,,LocalBusiness,TouristAttraction,-6.197159,52.5590215,Cahore,Wexford,Republic of Ireland,Activity,Attraction,Beach,None,None,None,None,None
Lemanaghan Monastic Site,http://www.megalithicireland.com/Lemanaghan%20Church.html,353579346839,LocalBusiness,TouristAttraction,-7.7442783,53.2933767,Ballycumber,Offaly,Republic of Ireland,Ireland's Hidden Hearthlands,Activity,Church Abbey,Monastery,Attraction,Churches,Abbeys and Monastery,Ruins
St Mary's Church Gowran,https://heritageireland.ie/visit/places-to-visit/st-marys-church-gowran/,353567726894,LocalBusiness,TouristAttraction,-7.0648611,52.6289052,Gowran,Kilkenny,Republic of Ireland,Activity,Attraction,Historic Houses and Castle,Church Abbey,Monastery,Churches,Abbeys and Monastery,None
Swiss Cottage,https://heritageireland.ie/places-to-visit/swiss-cottage/,353527441144,LocalBusiness,TouristAttraction,-7.9235163,52.3573101,Cahir,Tipperary,Republic of Ireland,Activity,Attraction,Historic Houses and Castle,Tour,None,None,None,None
Genealogy Service National Library of Ireland,https://www.nli.ie/en/intro/family-history-introduction.aspx,35316030200,LocalBusiness,Not Available,-6.2544821,53.3410984,Dublin City,Dublin,Republic of Ireland,Activity,Tracing Your Ancestors,None,None,None,None,None,None
The National Wax Museum Plus,https://waxmuseumplus.ie/,35316718373,LocalBusiness,Museum,-6.2587875,53.3465858,Dublin City,Dublin,Republic of Ireland,Activity,Attraction,Museums and Attraction,None,None,None,None,None
mackdonald language academy,https://www.mackdonald.com/,353879395106,LocalBusiness,Not Available,-7.250055,52.653157,Kilkenny City,Kilkenny,Republic of Ireland,Activity,Learning,None,None,None,None,None,None
Language Learning International,https://lli.ie/,35312143314,LocalBusiness,Not Available,-6.2667787,53.2889126,Rathfarnham,Dublin,Republic of Ireland,Activity,Learning,None,None,None,None,None,None
Blackrock Market,https://www.theblackrockmarket.com/,35312353522,LocalBusiness,FoodEstablishment,-6.1775631,53.3013652,Blackrock,Dublin,Republic of Ireland,Activity,Food and Drink,Restaurant,Shopping,Shopping Centres and Department Store,None,None,None
Glebe House and Gallery,https://heritageireland.ie/places-to-visit/glebe-house-and-gallery/,353749137071,LocalBusiness,TouristAttraction,-7.9028149,55.0041097,Letterkenny,Donegal,Republic of Ireland,Activity,Art Gallery,Attraction,Historic Houses and Castle,Cafe,Food and Drink,None,None
Celtic Tales,https://www.celtictalesgalway.com/,353838653317,LocalBusiness,TravelAgency,-9.0605371,53.2698679,Galway City,Galway,Republic of Ireland,Activity,Activity Operator,Attraction,Literary Ireland,Food and Drink,Pubs and Bar,None,None
Glynn's Coach & Bus Hire,http://www.glynnscoaches.com,353658828234,LocalBusiness,Not Available,-8.9635,52.855,Ennis,Clare,Republic of Ireland,Activity,Transport,Coach,Road,None,None,None,None
Tannery Cookery School,https://tannery.ie/gallery/cookery-school/cookery-school/,3535845420,LocalBusiness,TravelAgency,-7.616714,52.0885625,Dungarvan,Waterford,Republic of Ireland,Activity,Food and Drink,Cooking,Cookery,Learning,Activity Operator,Artisan,Restaurant
Giles Norman Photography,https://gilesnorman.com/,353214774373,LocalBusiness,Store,-8.522055,51.70445,Kinsale,Cork,Republic of Ireland,Activity,Craft,Shopping,Photography,Learning,Art Gallery,Attraction,Food Shops
Private Boat Charter by Kerry Aqua Terra,https://kerryaquaterra.ie/private-boat-charter/,353879220544,LocalBusiness,TravelAgency,-10.2867097,51.9271115,Valentia Island,Kerry,Republic of Ireland,Activity,Activity Operator,Day Tour,Tour,Boat,None,None,None
Galway Tour Guides Association,https://galwaytourguides.com/,353872833536,LocalBusiness,Not Available,-9.0512662,53.274001,Galway City,Galway,Republic of Ireland,Activity,Tour,None,None,None,None,None,None
Michael Collins Birthplace,,,LocalBusiness,TouristAttraction,-8.9805027,51.6165156,Clonakilty,Cork,Republic of Ireland,Activity,Attraction,Historic Houses and Castle,Ruins,None,None,None,None
O'Donovan's Castle,https://www.castles.nl/castle-donovan,3532821489,LocalBusiness,TouristAttraction,-9.2827815,51.692145,Drimoleague,Cork,Republic of Ireland,Activity,Castle,Attraction,Historic Houses and Castle,Ruins,None,None,None
The North Mayo Sculpture Trail,,35309845107,LocalBusiness,TouristAttraction,-9.16317710100111,54.1290890768704,Ballina,Mayo,Republic of Ireland,Activity,Attraction,Public Sculpture,None,None,None,None,None
Cove Restaurant,https://www.facebook.com/CoveRestaurantDonegal/,353872298257,LocalBusiness,FoodEstablishment,-7.9324184,55.1777687,Portnablaghy,Donegal,Republic of Ireland,Activity,Food and Drink,Restaurant,Artisan,Local Produce,Pubs and Bar,Seafood,Vegan
Beechdale Garden Centre,https://beechdale.ie/,353539244271,LocalBusiness,TouristAttraction,-6.6880463,52.4607195,Clonroche,Wexford,Republic of Ireland,Activity,Gardening,Nature and Wildlife,Gardens,Attraction,Garden,Shopping,Cafe
Dungarvan Farmers Market,https://www.facebook.com/DungarvanMarket/,353863940564,LocalBusiness,FoodEstablishment,-7.621041,52.089713,Dungarvan,Waterford,Republic of Ireland,Activity,Food and Drink,Restaurant,Food Shops,Shopping,None,None,None
Tullow Museum,https://carlowtourism.com/attraction/tullow-museum/,353872383515,LocalBusiness,Museum,-6.7379097,52.8023062,Tullow,Carlow,Republic of Ireland,Activity,Learning,Tracing Your Ancestors,Attraction,Museums and Attraction,None,None,None
Townley Hall Woods,https://www.coillte.ie/site/townley-hall/,,LocalBusiness,TouristAttraction,-6.438562,53.734372,Oldbridge,Meath,Republic of Ireland,Activity,Gardens,Attraction,Garden,None,None,None,None
Murvagh Beach,https://www.blueflag.global/show-site?siteId=6591,,LocalBusiness,TouristAttraction,-8.162617,54.604784,Murvagh,Donegal,Republic of Ireland,Activity,Attraction,Beach,None,None,None,None,None
Culletons Gap Beach,,,LocalBusiness,TouristAttraction,-6.36533822519527,52.371806499159,Curracloe,Wexford,Republic of Ireland,Activity,Attraction,Beach,None,None,None,None,None
U2's Dublin - See Dublin by Bike,http://www.seedublinbybike.ie,353876955976,LocalBusiness,SportsActivityLocation,-6.26386371660237,53.3419644759931,Dublin City,Dublin,Republic of Ireland,Activity,Cycling,Activity Operator,Tour,None,None,None,None
Tearmann Community Garden,https://facebook.com/tearmannbaltinglass,353863783168,LocalBusiness,TouristAttraction,-6.7020539,52.9391057,Baltinglass,Wicklow,Republic of Ireland,Activity,Gardens,Attraction,Garden,None,None,None,None
Cycleways.com,https://cycleways.com/,35318734748,LocalBusiness,SportsActivityLocation,-6.2644425,53.3464628,Dublin City,Dublin,Republic of Ireland,Activity,Cycling,Shopping,Bike Rental,None,None,None,None
Spanish Point Beach,https://www.blueflag.global/show-site?siteId=6624,,LocalBusiness,SportsActivityLocation,-9.4332912,52.843133,Spanish Point,Clare,Republic of Ireland,Activity,Surfing,Activity Operator,Attraction,Beach,Natural Landscape,None,None
Molly Malone,,35316057700,LocalBusiness,TouristAttraction,-6.26094995939002,53.3437399157111,Dublin City,Dublin,Republic of Ireland,Activity,Attraction,Public Sculpture,None,None,None,None,None
Phil Lynott Statue,,,LocalBusiness,TouristAttraction,-6.2606956,53.341281,Dublin City,Dublin,Republic of Ireland,Activity,Attraction,Public Sculpture,None,None,None,None,None
James Connolly,,,LocalBusiness,TouristAttraction,-6.254672,53.3487467,Dublin City,Dublin,Republic of Ireland,Activity,Attraction,Public Sculpture,None,None,None,None,None
Coastguard Cultural Centre Tramore,https://www.coastguardculturalcentre.ie/,35351391656,LocalBusiness,TouristAttraction,-7.1584317,52.15621,Tramore,Waterford,Republic of Ireland,Activity,Food and Drink,Art Gallery,Attraction,Cafe,Local Produce,Restaurant,Vegetarian
Dingle Farm Produce and Craft Market,https://www.facebook.com/dinglefarmersmarket,353669151474,LocalBusiness,FoodEstablishment,-10.270384,52.139924,Daingean U Chis (Dingle),Kerry,Republic of Ireland,Activity,Food and Drink,Restaurant,Food Shops,Shopping,None,None,None
Weir's Bar & Restaurant,https://www.weirsmultyfarnham.ie/,353449371111,LocalBusiness,BarOrPub,-7.3907611,53.6246435,Multyfarnham,Westmeath,Republic of Ireland,Ireland's Hidden Hearthlands,Activity,Food and Drink,Restaurant,Pubs and Bar,None,None,None
Hatters Lane Bistro,https://www.facebook.com/HattersLaneBistro/,353906473077,LocalBusiness,FoodEstablishment,-7.940124,53.4234548,Athlone,Westmeath,Republic of Ireland,Ireland's Hidden Hearthlands,Activity,Food and Drink,Restaurant,Seafood,None,None,None
Ann McDonalds Upper Deck Caf,https://www.annmcdonaldscafe.com/,35351425391,LocalBusiness,BarOrPub,-6.943542,52.3954791,New Ross,Wexford,Republic of Ireland,Activity,Food and Drink,Restaurant,Cafe,None,None,None,None
Colclough Walled Garden,https://www.colcloughwalledgarden.com/,353833064159,LocalBusiness,SportsActivityLocation,-6.8425278,52.234339,Saltmills,Wexford,Republic of Ireland,Activity,Walking,Gardens,Attraction,Garden,None,None,None
Druid Theatre,http://www.druid.ie,35391568660,LocalBusiness,BarOrPub,-9.0531907,53.2708818,Galway City,Galway,Republic of Ireland,Activity,Food and Drink,Pubs and Bar,None,None,None,None,None
Bloom E Riders,https://www.bloomeriders.ie/,353873424274,LocalBusiness,SportsActivityLocation,-7.7183434,53.1012516,Kinnitty,Offaly,Republic of Ireland,Ireland's Hidden Hearthlands,Activity,Cycling,Activity Operator,Bike Rental,None,None,None
Jewellery Making with Victoria Foutz,https://www.facebook.com/VictoriaFoutzBijoux,,LocalBusiness,Store,-9.5490818,53.7995716,Westport,Mayo,Republic of Ireland,Activity,Craft,Shopping,Learning,None,None,None,None
Farrier and Draper,https://www.farrieranddraper.ie/,35316771220,LocalBusiness,BarOrPub,-6.2622113,53.3424922,Dublin City,Dublin,Republic of Ireland,Activity,Food and Drink,Restaurant,Venue,Music,Pubs and Bar,None,None
Irish Country Quads,https://irishcountryquads.com/,353872460742,LocalBusiness,TravelAgency,-6.5815187,54.0302243,Inniskeen,Monaghan,Republic of Ireland,Activity,Activity Operator,Adventure Park,None,None,None,None,None
The Fields of Athenry Gift Shop,https://www.thefieldsofathenrygiftshop.com/,35391844113,LocalBusiness,ShoppingCenter,-8.7475392,53.2991066,Athenry,Galway,Republic of Ireland,Activity,Shopping,Shopping Centres and Department Store,Food Shops,None,None,None,None
Quay Co-op,https://quaycoop.com/,353214317026,LocalBusiness,FoodEstablishment,-8.4750078,51.8954933,Cork City,Cork,Republic of Ireland,Activity,Food and Drink,Restaurant,Vegetarian,None,None,None,None
Jump Zone Santry,https://jumpzone.ie/santry,35318623366,LocalBusiness,TravelAgency,-6.234427,53.4065399,Santry,Dublin,Republic of Ireland,Activity,Activity Operator,None,None,None,None,None,None
Moville Pottery,https://movillepottery.com/,353749382059,LocalBusiness,Store,-7.0515554,55.1921018,Moville,Donegal,Republic of Ireland,Activity,Craft,Shopping,Learning,Shopping Centres and Department Store,Food Shops,None,None
The Gravedigger Ghostbus  Irish Day Tours,https://www.irishdaytours.ie/the-gravedigger-tour,35319073265,LocalBusiness,TravelAgency,-6.2596291,53.3443425,Dublin City,Dublin,Republic of Ireland,Activity,Activity Operator,Tour,None,None,None,None,None
Hidden Ireland Tours,http://www.hiddenirelandtours.com/,3530646644733,LocalBusiness,SportsActivityLocation,-9.63592442858339,52.024155292185,Killarney,Kerry,Republic of Ireland,Activity,Kayaking,Activity Operator,Walking,Day Tour,Tour,None,None
The Hurling Experience Tour,https://thehurlingexperience.ie/,353852528026,LocalBusiness,SportsActivityLocation,-6.28670430071088,53.3418836296386,Dublin City,Dublin,Republic of Ireland,Activity,Gaa,Attraction,Activity Operator,None,None,None,None
Executive Chauffeur Drive,https://executivechauffeurdrive.com/,353868800611,LocalBusiness,TravelAgency,-6.3105656,53.3302033,Dublin City,Dublin,Republic of Ireland,Activity,Transport,Activity Operator,Tour,Coach,Road,None,None
Laois Executive Travel,https://laoisexecutivetravel.ie/,353851186906,LocalBusiness,TravelAgency,-7.2987933,53.0328123,Portlaoise,Laois,Republic of Ireland,Activity,Transport,Activity Operator,Tour,Coach,Road,None,None
Getgolfing.ie,https://getgolfing.ie/,353872209663,LocalBusiness,SportsActivityLocation,-9.5044265,52.0599353,Killarney,Kerry,Republic of Ireland,Activity,Golf,Learning,Activity Operator,None,None,None,None
Fitzgerald Park,https://www.corkcity.ie/en/things-to-do/parks-outdoors/cork-city-parks/cork-city-parks,353214924000,LocalBusiness,TouristAttraction,-8.4958944,51.896286,Cork City,Cork,Republic of Ireland,Activity,Public Park,Nature and Wildlife,Cafe,Food and Drink,None,None,None
Suir Valley Adventures,https://www.facebook.com/Suir-Valley-Adventures-1751254174888592/,353831772626,LocalBusiness,SportsActivityLocation,-7.9246931,52.3764533,Cahir,Tipperary,Republic of Ireland,Activity,Kayaking,Activity Operator,None,None,None,None,None
The Thatch Crinkill,https://thethatchcrinkill.com/,353579120682,LocalBusiness,BarOrPub,-7.8982902,53.0799509,Crinkill,Offaly,Republic of Ireland,Ireland's Hidden Hearthlands,Activity,Food and Drink,Restaurant,Pubs and Bar,None,None,None
Field Kitchen,https://www.fieldkitchen.ie/,353868263429,LocalBusiness,FoodEstablishment,-8.9311,51.570291,Clonakilty,Cork,Republic of Ireland,Activity,Food and Drink,Restaurant,Artisan,Pubs and Bar,Local Produce,Vegan,Vegetarian
Carlow Cathedral,https://carlowcathedral.ie/,353599164087,LocalBusiness,TouristAttraction,-6.927924,52.837005,Carlow Town,Carlow,Republic of Ireland,Activity,Church Abbey,Monastery,Attraction,Churches,Abbeys and Monastery,None,None
Rolf's Country House Restaurant & Wine Bar,https://rolfscountryhouse.com/restaurant/,3532820289,LocalBusiness,FoodEstablishment,-9.3684289,51.4792193,Baltimore,Cork,Republic of Ireland,Activity,Food and Drink,Restaurant,None,None,None,None,None
The Lifeboat Inn,https://lifeboatinn.ie/,353238864656,LocalBusiness,BarOrPub,-8.7063121,51.6337928,Courtmacsherry,Cork,Republic of Ireland,Activity,Food and Drink,Pubs and Bar,None,None,None,None,None
World War 1 Trench Experience,https://cavanmuseum.ie/home,353498544070,LocalBusiness,Museum,-7.2010829,53.8670567,Ballyjamesduff,Cavan,Republic of Ireland,Ireland's Hidden Hearthlands,Activity,Attraction,Museums and Attraction,Cafe,Food and Drink,None,None
Irish Mountaineering Academy,https://www.irishmountaineering.ie/,353876369820,LocalBusiness,SportsActivityLocation,-9.359161,53.0678021,Doolin,Clare,Republic of Ireland,Activity,Climbing,Activity Operator,Learning,None,None,None,None
The Red Store Bar and Restaurant,https://www.facebook.com/Theredstorebarandrestaurant/,3532490144,LocalBusiness,BarOrPub,-7.8505103,51.9561116,Youghal,Cork,Republic of Ireland,Activity,Food and Drink,Pubs and Bar,None,None,None,None,None
Thomond Bar,https://www.facebook.com/MUNSTER1234,353214279747,LocalBusiness,BarOrPub,-8.4727351,51.8978996,Cork City,Cork,Republic of Ireland,Activity,Food and Drink,Pubs and Bar,None,None,None,None,None
Oscar Wilde,,,LocalBusiness,TouristAttraction,-6.2504689,53.3407302,Dublin City,Dublin,Republic of Ireland,Activity,Attraction,Public Sculpture,Literary Ireland,None,None,None,None
Burren College of Art,https://www.burrencollege.ie/,353657077200,LocalBusiness,Store,-9.169807,53.103563,Ballyvaughan,Clare,Republic of Ireland,Activity,Craft,Shopping,Learning,Photography,Art Gallery,Attraction,Cafe
Lavit Gallery,https://lavitgallery.com/,353214277749,LocalBusiness,Store,-8.4793557,51.8963646,Cork City,Cork,Republic of Ireland,Activity,Craft,Shopping,Art Gallery,Attraction,Food Shops,None,None
Seanchibh an Spidil,,,LocalBusiness,SportsActivityLocation,-9.3056117,53.2430644,An Spidal (Spiddal),Galway,Republic of Ireland,Activity,Fishing,Angling,Kitesurfing,Windsurfing,Activity Operator,Sailing,Walking
Fenagh Visitor Centre,https://fenagh.com/,353719645590,LocalBusiness,TravelAgency,-7.8391667,54.0207216,Fenagh,Leitrim,Republic of Ireland,Ireland's Hidden Hearthlands,Activity,Activity Operator,Tracing Your Ancestors,Church Abbey,Monastery,Attraction,Churches
C Dhn Chaoin (Dunquin Pier),,,LocalBusiness,SportsActivityLocation,-10.4606725,52.1243059,Dn Chaoin (Dunquin),Kerry,Republic of Ireland,Activity,Sailing,Activity Operator,Attraction,Embarkation Point,Island,Offshore Island,Natural Landscape
Bathing Place at Portumna,https://www.blueflag.global/show-site?siteId=16731,35391509000,LocalBusiness,TouristAttraction,-8.2142006,53.0890301,Portumna,Galway,Republic of Ireland,Ireland's Hidden Hearthlands,Activity,Attraction,Beach,None,None,None,None
Cappa Pier,https://www.clarecoco.ie/services/arts-recreation/leisure-and-swimming/bathing/blueflag/cappagh-beach-kilrush.html ,,LocalBusiness,TouristAttraction,-9.496886,52.6312185,Kilrush,Clare,Republic of Ireland,Activity,Attraction,Beach,None,None,None,None,None
Marble Hill,,,LocalBusiness,SportsActivityLocation,-7.8971701,55.1746132,Dunfanaghy,Donegal,Republic of Ireland,Activity,Surfing,Activity Operator,Swimming,Swimming Pools and Water Park,Venue,Attraction,Beach
Kilmokea Country Manor Gardens,https://www.kilmokea.com/kilmokea-country-manor-gardens,35351388109,LocalBusiness,SportsActivityLocation,-6.9929536,52.2959442,Campile,Wexford,Republic of Ireland,Activity,Walking,Gardens,Attraction,Garden,Cafe,Food and Drink,None
Henry's Bistro & Wine Bar,https://www.henrysbistroandwinebar.ie/,353656899393,LocalBusiness,BarOrPub,-8.9853162,52.8419791,Ennis,Clare,Republic of Ireland,Activity,Food and Drink,Restaurant,Pubs and Bar,None,None,None,None
Rosses Point Beach,https://www.blueflag.global/show-site?siteId=6595,353719111111,LocalBusiness,TouristAttraction,-8.5718316,54.3089365,Rosses Point,Sligo,Republic of Ireland,Activity,Attraction,Beach,None,None,None,None,None
Dodi Caf,https://www.facebook.com/dodicafe,353858120234,LocalBusiness,CafeOrCoffeeShop,-9.3460973,52.9327209,Lahinch,Clare,Republic of Ireland,Activity,Food and Drink,Cafe,None,None,None,None,None
Cois Lacha Restaurant at The Lakeside Hotel,https://www.lakesidehotel.ie/the-derg-room-restaurant.html,35361376122,LocalBusiness,FoodEstablishment,-8.444048,52.811047,Ballina,Tipperary,Republic of Ireland,Ireland's Hidden Hearthlands,Activity,Food and Drink,Restaurant,None,None,None,None
Moher Cottage,https://mohercottage.com/,353872959096,LocalBusiness,Store,-9.4211378,52.9529765,Liscannor,Clare,Republic of Ireland,Activity,Craft,Shopping,Shopping Centres and Department Store,Cafe,Food and Drink,Food Shops,None
Lahinch Golf Club Old Course,https://lahinchgolf.com,353657081003,LocalBusiness,SportsActivityLocation,-9.3536054,52.9401875,Lahinch,Clare,Republic of Ireland,Golf Course,Activity,Golf,Activity Operator,None,None,None,None
The Castle Inn,https://www.facebook.com/castle.inn.7,35312819232,LocalBusiness,BarOrPub,-6.0646624,53.0714587,Newcastle,Wicklow,Republic of Ireland,Activity,Food and Drink,Restaurant,Pubs and Bar,None,None,None,None
Jackson's Restaurant,https://www.facebook.com/profile.php?id=100042095997117,353906665599,LocalBusiness,FoodEstablishment,-8.1898679,53.6310768,Roscommon Town,Roscommon,Republic of Ireland,Ireland's Hidden Hearthlands,Activity,Food and Drink,Restaurant,Seafood,Vegetarian,None,None
St Anne's Park and Rose Gardens,https://www.dublincity.ie/residential/parks/dublin-city-parks/visit-park/st-annes-park,35318338898,LocalBusiness,TouristAttraction,-6.17541,53.3693,Dublin City,Dublin,Republic of Ireland,Activity,Gardens,Attraction,Garden,None,None,None,None
Morrissey's of Doonbeg,https://www.morrisseysofdoonbeg.ie/,353659055304,LocalBusiness,BarOrPub,-9.5243905,52.7309266,Doonbeg,Clare,Republic of Ireland,Activity,Food and Drink,Restaurant,Pubs and Bar,Local Produce,Seafood,None,None
"Benny's Deli, Restaurant and Caf",https://www.bennysdeli.com/,353949620575,LocalBusiness,CafeOrCoffeeShop,-8.494767,53.769361,Castlerea,Roscommon,Republic of Ireland,Ireland's Hidden Hearthlands,Activity,Food and Drink,Cafe,None,None,None,None
The Poet's Corner Bar- Ennis,https://www.oldgroundhotelennis.com/poets-corner-bar.html,353656828127,LocalBusiness,BarOrPub,-8.9831105,52.8423437,Ennis,Clare,Republic of Ireland,Activity,Food and Drink,Pubs and Bar,None,None,None,None,None
The Ol' 55 Bar and Venue,https://ol55bargalway.ie/,35391376864,LocalBusiness,BarOrPub,-9.0480767,53.2758289,Galway City,Galway,Republic of Ireland,Activity,Food and Drink,Venue,Music,Pubs and Bar,None,None,None
Randaddy's Caf & Restaurant,https://www.randaddys.ie/,353657082740,LocalBusiness,FoodEstablishment,-9.347499,52.933887,Lahinch,Clare,Republic of Ireland,Activity,Food and Drink,Restaurant,None,None,None,None,None
Trump International Golf Links Doonbeg,https://www.trumpgolfireland.com/,353659055600,LocalBusiness,SportsActivityLocation,-9.502573,52.7460738,Doonbeg,Clare,Republic of Ireland,Golf Course,Activity,Golf,Driving Range,General,Golf Driving Range,Activity Operator,None
Shannon Estuary Way Retreat,https://shannonestuarywayretreat.ie/,353858519818,LocalBusiness,HealthClub,-9.1028593,52.7236774,Ballynacally,Clare,Republic of Ireland,Activity,Pampering,Health Farm,Spa and Wellness,Specialised Retreat,Walking,Activity Operator,None
Birr Golf Club,https://birrgolfclub.ie/,353579120082,LocalBusiness,SportsActivityLocation,-7.9098559,53.127444,Birr,Offaly,Republic of Ireland,Golf Course,Ireland's Hidden Hearthlands,Activity,Golf,Driving Range,General,Golf Driving Range,Activity Operator
Lismore Golf Club,https://www.lismoregolf.com/,3535854026,LocalBusiness,SportsActivityLocation,-7.935802,52.1465748,Lismore,Waterford,Republic of Ireland,Golf Course,Activity,Golf,Activity Operator,None,None,None,None
Ballinrobe Racecourse,https://ballinroberacecourse.ie/,353949541811,LocalBusiness,SportsActivityLocation,-9.2446636,53.6382888,Ballinrobe,Mayo,Republic of Ireland,Activity,Race Course,Venue,Sports Venues,None,None,None,None
Donegal Wild Atlantic Flavours,https://www.facebook.com/profile.php?id=100093463395817,353872523932,LocalBusiness,FoodEstablishment,-8.1400725,55.116926,Gort An Choirce (Gortahork),Donegal,Republic of Ireland,Activity,Food and Drink,Cooking,Cookery,Learning,Restaurant,Activity Operator,Artisan
OE Bikes,https://www.oebikes.ie/bike-hire/,353449335351,LocalBusiness,SportsActivityLocation,-7.3618054,53.5166853,Mullingar,Westmeath,Republic of Ireland,Ireland's Hidden Hearthlands,Activity,Cycling,Activity Operator,Bike Rental,None,None,None
Limerick Racecourse,https://www.limerickraces.ie/,35361320000,LocalBusiness,SportsActivityLocation,-8.6956278,52.5906552,Patrickswell,Limerick,Republic of Ireland,Activity,Race Course,Venue,Sports Venues,None,None,None,None
The Beach Bar,http://www.thebeachbarsligo.com,353719176465,LocalBusiness,BarOrPub,-8.7572007,54.268985,Templeboy,Sligo,Republic of Ireland,Activity,Food and Drink,Pubs and Bar,None,None,None,None,None
Ballymahon Greenway Cycles,https://ballymahongreenwaycycles.ie/,353906438608,LocalBusiness,SportsActivityLocation,-7.7617242,53.5671785,,Longford,Republic of Ireland,Ireland's Hidden Hearthlands,Activity,Cycling,Activity Operator,Bike Rental,None,None,None
Killarney Racecourse,https://killarneyraces.ie/,353646631125,LocalBusiness,Not Available,-9.512966,52.0501108,Killarney,Kerry,Republic of Ireland,Activity,Race Course,Venue,None,None,None,None,None
DoDublin Tours,https://dodublin.ie#tourisire23,35317033024,LocalBusiness,Not Available,-6.26102819673986,53.3504633410895,Dublin City,Dublin,Republic of Ireland,Activity,Tour,None,None,None,None,None,None
Loop Head e-bikes,https://keanesbar.ie/ebikes.html,353868886820,LocalBusiness,SportsActivityLocation,-9.7098321,52.6041906,Carrigaholt,Clare,Republic of Ireland,Activity,Cycling,Activity Operator,Bike Rental,Tour,None,None,None
C Bhaile an Sceilg (Ballinskelligs Pier),,,LocalBusiness,SportsActivityLocation,-10.274349,51.810877,Baile an Sceilg (Ballinskelligs),Kerry,Republic of Ireland,Activity,Sailing,Activity Operator,Attraction,Embarkation Point,Island,Offshore Island,None
Kilmakilloge,,,LocalBusiness,TouristAttraction,-9.7983422,51.782806,Kenmare,Kerry,Republic of Ireland,Activity,Attraction,Beach,River,Discovery Point,None,None,None
The House of Waterford Crystal,https://www.waterfordvisitorcentre.com/,35351317000,LocalBusiness,Store,-7.1067612,52.2592684,Waterford City,Waterford,Republic of Ireland,Activity,Craft,Shopping,Learning,Shopping Centres and Department Store,Attraction,Museums and Attraction,Cafe
Brehon Brewhouse,https://brehonbrewhouse.ie/the-brewery/,353868230914,LocalBusiness,FoodEstablishment,-6.6355745,53.980673,Inniskeen,Monaghan,Republic of Ireland,Activity,Food and Drink,Restaurant,Attraction,Museums and Attraction,Artisan,Local Produce,Food Shops
Dublin Downtown & Temple Bar Doughnut Tour,https://www.undergrounddonuttour.com/dublin-downtown-temple-bar-doughnut-tour,,LocalBusiness,FoodEstablishment,-6.2610855,53.3401744,Dublin City,Dublin,Republic of Ireland,Activity,Food and Drink,Restaurant,Activity Operator,Artisan,Food Trails and Tour,Tour,None
Athy Golf Club,https://www.athygolfclub.com/website/,353598631729,LocalBusiness,SportsActivityLocation,-6.9625049,53.0083734,Athy,Kildare,Republic of Ireland,Golf Course,Activity,Golf,Driving Range,General,Golf Driving Range,Activity Operator,None
West End Bar & Restaurant,http://westendfenit.ie,353667136246,LocalBusiness,BarOrPub,-9.864344,52.2767224,Fenit,Kerry,Republic of Ireland,Activity,Food and Drink,Restaurant,Pubs and Bar,Seafood,None,None,None
Colla Pier,,,LocalBusiness,SportsActivityLocation,-9.561419,51.506532,Schull,Cork,Republic of Ireland,Activity,Sailing,Activity Operator,Attraction,Embarkation Point,Island,Offshore Island,None
The Skellig Experience Visitor Centre,https://skelligexperience.com/,353669476306,LocalBusiness,TravelAgency,-10.3674232,51.8896352,Valentia Island,Kerry,Republic of Ireland,Activity,Restaurant,Activity Operator,Attraction,Museums and Attraction,Food and Drink,Day Tour,Tour
Craddockstown Golf Club,https://www.craddockstown.com/,35345897610,LocalBusiness,SportsActivityLocation,-6.6371503,53.2044988,Naas,Kildare,Republic of Ireland,Golf Course,Activity,Golf,Activity Operator,None,None,None,None
Twist of Irish,https://www.twistofirish.com/,353868822024,LocalBusiness,TravelAgency,-6.153571,53.451198,Malahide,Dublin,Republic of Ireland,Activity,Learning,Activity Operator,Traditionally Irish,Food and Drink,Pubs and Bar,None,None
Carlingford Arms Bar & Restaurant,https://carlingfordarms.com/,353429373418,LocalBusiness,BarOrPub,-6.1867039,54.0404328,Carlingford,Louth,Republic of Ireland,Activity,Food and Drink,Restaurant,Pubs and Bar,None,None,None,None
Comedy at The International,https://intercomedydublin.com/,35316779250,LocalBusiness,ComedyClub,-6.2617769,53.3431142,Dublin City,Dublin,Republic of Ireland,Activity,Venue,Comedy,Food and Drink,Pubs and Bar,Activity Operator,None,None
The Painted Pot Pottery Studio,https://thepaintedpot.ie/,353863442245,LocalBusiness,Store,-9.1338194,52.4195119,Newcastle West,Limerick,Republic of Ireland,Activity,Craft,Shopping,Learning,Activity Operator,None,None,None
The Lime Tree Restaurant,https://www.limetreerestaurant.com/,353646641225,LocalBusiness,FoodEstablishment,-9.5820356,51.8782006,Kenmare,Kerry,Republic of Ireland,Activity,Food and Drink,Restaurant,None,None,None,None,None
Bantry Harbour,,,LocalBusiness,TouristAttraction,-9.4611105,51.6798532,Bantry,Cork,Republic of Ireland,Activity,Attraction,Embarkation Point,Island,Offshore Island,Natural Landscape,None,None
Lough Lounge Bar & Restaurant at the Four Seasons,https://www.4seasonshotelcarlingford.ie/dining.html,353429373530,LocalBusiness,FoodEstablishment,-6.1818983,54.0395603,Carlingford,Louth,Republic of Ireland,Activity,Food and Drink,Restaurant,Seafood,None,None,None,None
Donegal Castle,https://heritageireland.ie/places-to-visit/donegal-castle/,353749722405,LocalBusiness,TouristAttraction,-8.110522,54.6547616,Donegal Town,Donegal,Republic of Ireland,Activity,Castle,Attraction,Historic Houses and Castle,None,None,None,None
Judge Roy Beans,https://judgeroybeans.ie/,35345438077,LocalBusiness,BarOrPub,-6.8004568,53.1786738,Newbridge,Kildare,Republic of Ireland,Activity,Food and Drink,Pubs and Bar,None,None,None,None,None
Glendalough Visitor Centre,https://heritageireland.ie/places-to-visit/glendalough-visitor-centre/,35340445325,LocalBusiness,SportsActivityLocation,-6.3243431,53.010461,Glendalough,Wicklow,Republic of Ireland,Activity,Walking,Church Abbey,Monastery,Attraction,Churches,Abbeys and Monastery,Museums and Attraction
Butler Gallery,https://www.butlergallery.ie,353567761106,LocalBusiness,TouristAttraction,-7.2491045,52.6537735,Kilkenny City,Kilkenny,Republic of Ireland,Activity,Restaurant,Learning,Photography,Art Gallery,Attraction,Museums and Attraction,Cafe
Bourn Vincent Gallery,https://www.limerick.ie/discover/eat-see-do/arts-culture/art-galleries/university-limerick-art-collections,35361333644,LocalBusiness,TouristAttraction,-8.573732,52.6744919,Castletroy,Limerick,Republic of Ireland,Activity,Art Gallery,Attraction,None,None,None,None,None
Moyvalley Golf Club,https://www.moyvalleygolf.com/,353469548080,LocalBusiness,SportsActivityLocation,-6.9223888916016,53.4133632665912,Moyvalley,Kildare,Republic of Ireland,Golf Course,Activity,Golf,Driving Range,General,Golf Driving Range,Activity Operator,None
Ulysses Pub at the Greville Arms Hotel,https://www.grevillearmshotel.ie/eat-and-drink.html,353449348563,LocalBusiness,BarOrPub,-7.3408333,53.5258333,Mullingar,Westmeath,Republic of Ireland,Ireland's Hidden Hearthlands,Activity,Food and Drink,Pubs and Bar,None,None,None,None
Viking Legacy Trails,https://vikinglegacytrails.ie/,353858616016,LocalBusiness,TravelAgency,-6.2603097,53.3498053,Dublin City,Dublin,Republic of Ireland,Activity,Activity Operator,Tour,Walking,None,None,None,None
Mystery City Games,https://mystery.city/cities/dublin/,,LocalBusiness,TravelAgency,-6.2626035,53.3460086,Dublin City,Dublin,Republic of Ireland,Activity,Activity Operator,Tour,None,None,None,None,None
"Bush Bar, Restaurant and Coffee Shop at The Bush Hotel",https://www.bushhotel.com/dining-and-bar/,353719671000,LocalBusiness,BarOrPub,-8.093956,53.946164,Carrick-on-Shannon,Leitrim,Republic of Ireland,Ireland's Hidden Hearthlands,Activity,Food and Drink,Restaurant,Pubs and Bar,None,None,None
Ballyneety Golf Club,https://www.ballyneetygolfclub.com/,35361351881,LocalBusiness,SportsActivityLocation,-8.55145,52.590331,Ballyneety,Limerick,Republic of Ireland,Golf Course,Ireland's Hidden Hearthlands,Activity,Golf,Driving Range,General,Golf Driving Range,Activity Operator
Oshadi Spa at Lough Allen Hotel,https://www.loughallenhotel.com/oshadi-spa-leitrim.html,353719640100,LocalBusiness,HealthClub,-8.045928,54.054498,Drumshanbo,Leitrim,Republic of Ireland,Ireland's Hidden Hearthlands,Activity,Pampering,Health Farm,Spa and Wellness,Specialised Retreat,Spa,None
St Nicholas' Collegiate Church of Ireland,,35391564648,LocalBusiness,TouristAttraction,-9.0537087,53.2726799,Galway City,Galway,Republic of Ireland,Activity,Church Abbey,Monastery,Attraction,Churches,Abbeys and Monastery,None,None
Walks Tours,https://www.takewalks.com/dublin-tours/,,LocalBusiness,TravelAgency,-6.2497129,53.3368251,Dublin City,Dublin,Republic of Ireland,Activity,Activity Operator,Tour,Walking,None,None,None,None
Bar Rua,https://www.facebook.com/barruadublin,35314414425,LocalBusiness,BarOrPub,-6.2624311,53.3410567,Dublin City,Dublin,Republic of Ireland,Activity,Food and Drink,Restaurant,Pubs and Bar,None,None,None,None
Freddys Restaurant,https://www.freddysrestaurant.com/,353830160166,LocalBusiness,FoodEstablishment,-8.6306486,52.6610136,Limerick City,Limerick,Republic of Ireland,Activity,Food and Drink,Restaurant,None,None,None,None,None
Bang Restaurant,https://www.bangrestaurant.com/,35314004229,LocalBusiness,FoodEstablishment,-6.25401534320827,53.3383327264619,Dublin City,Dublin,Republic of Ireland,Activity,Food and Drink,Restaurant,None,None,None,None,None
Molly Gallivan's Cottage and Traditional Farm,https://mollygallivans.com/,353646641455,LocalBusiness,Store,-9.5625867,51.8012241,Kenmare,Kerry,Republic of Ireland,Activity,Restaurant,Craft,Shopping,Visitor Farm,Attraction,Traditionally Irish,Cafe
The Yew Tree Restaurant at Muckross Park Hotel,https://www.muckrosspark.com/dining-in-killarney/yew-tree-restaurant,353646623400,LocalBusiness,FoodEstablishment,-9.489689,52.0250538,Killarney,Kerry,Republic of Ireland,Activity,Food and Drink,Restaurant,None,None,None,None,None
Galway Bay Golf Resort,https://galwaybaygolfresort.ie/,35391790711,LocalBusiness,SportsActivityLocation,-8.9742739,53.2498052,Oranmore,Galway,Republic of Ireland,Golf Course,Activity,Golf,Activity Operator,None,None,None,None
56 Central Restaurant,http://www.56central.com,35391569511,LocalBusiness,CafeOrCoffeeShop,-9.052348,53.272925,Galway City,Galway,Republic of Ireland,Activity,Food and Drink,Restaurant,Cafe,Pubs and Bar,None,None,None
McMunn's of Ballybunion,https://www.mcmunns.com/restaurant/,3536828845,LocalBusiness,BarOrPub,-9.675609,52.5110802,Ballybunion,Kerry,Republic of Ireland,Activity,Food and Drink,Restaurant,Pubs and Bar,None,None,None,None
McGettigan's Limerick,https://www.mcgettigans.com/limerick-ireland/,35361207000,LocalBusiness,BarOrPub,-8.6327595,52.6608157,Limerick City,Limerick,Republic of Ireland,Activity,Food and Drink,Pubs and Bar,None,None,None,None,None
Corrib House Tea Rooms,https://corribhouse.com/?page_id=1856,35391446753,LocalBusiness,CafeOrCoffeeShop,-9.0548379,53.2765537,Galway City,Galway,Republic of Ireland,Activity,Food and Drink,Cafe,None,None,None,None,None
Lakeside Caf,https://www.facebook.com/lakesidecafe.wetlands,353667126700,LocalBusiness,CafeOrCoffeeShop,-9.70051681721145,52.2731768453068,Tralee,Kerry,Republic of Ireland,Activity,Food and Drink,Cafe,None,None,None,None,None
Ground & Co.,https://groundandco.ie,35391527846,LocalBusiness,CafeOrCoffeeShop,-9.0743756,53.2598955,Bthar na Tr (Salthill),Galway,Republic of Ireland,Activity,Food and Drink,Cafe,Local Produce,Restaurant,Vegetarian,None,None
Quinn's De Bucket Bar & Restaurant,https://quinnsdebucket.ie/,35361353028,LocalBusiness,BarOrPub,-8.765907,52.6198105,Kildimo,Limerick,Republic of Ireland,Activity,Food and Drink,Restaurant,Pubs and Bar,None,None,None,None
Kai Restaurant,https://www.kairestaurant.ie/,35391526003,LocalBusiness,FoodEstablishment,-9.061189,53.269572,Galway City,Galway,Republic of Ireland,Activity,Food and Drink,Restaurant,Seafood,Vegetarian,None,None,None
The Bianconi,https://www.bianconi.ie,353669761146,LocalBusiness,BarOrPub,-9.7847527,52.1060953,Killorglin,Kerry,Republic of Ireland,Activity,Food and Drink,Restaurant,Pubs and Bar,None,None,None,None
Caf Mocha,http://kenmare.com/cafemocha,353646642133,LocalBusiness,CafeOrCoffeeShop,-9.5836628,51.8801154,Kenmare,Kerry,Republic of Ireland,Activity,Food and Drink,Cafe,None,None,None,None,None
Toddys Bar & Brasserie at The Gresham Hotel,https://www.riu.com/en/hotel/ireland/dublin/hotel-riu-plaza-the-gresham-dublin/,35318746881,LocalBusiness,BarOrPub,-6.260295,53.35166,Dublin City,Dublin,Republic of Ireland,Activity,Food and Drink,Restaurant,Pubs and Bar,None,None,None,None
Loughrea Golf Club,https://www.loughreagolfclub.com/,35391841049,LocalBusiness,SportsActivityLocation,-8.560867,53.218213,Loughrea,Galway,Republic of Ireland,Golf Course,Ireland's Hidden Hearthlands,Activity,Golf,Activity Operator,None,None,None
Bleecker Street Caf Bar,https://bleecker-street-cafe-bar.business.site,35318044459,LocalBusiness,BarOrPub,-6.2639138,53.3571801,Dublin City,Dublin,Republic of Ireland,Activity,Food and Drink,Pubs and Bar,None,None,None,None,None
Yamamori South City,https://www.yamamori.ie/southcity,35314755001,LocalBusiness,FoodEstablishment,-6.264673,53.342837,Dublin City,Dublin,Republic of Ireland,Activity,Food and Drink,Restaurant,None,None,None,None,None
McDonagh's Seafood House,http://www.mcdonaghs.net,35391565001,LocalBusiness,FoodEstablishment,-9.0545095,53.2709622,Galway City,Galway,Republic of Ireland,Activity,Food and Drink,Restaurant,None,None,None,None,None
Brother Hubbard South,https://brotherhubbard.ie/,35314411112,LocalBusiness,CafeOrCoffeeShop,-6.2656385,53.3327441,Dublin City,Dublin,Republic of Ireland,Activity,Food and Drink,Cafe,None,None,None,None,None
Massimo,https://massimogalway.com/,35391582239,LocalBusiness,BarOrPub,-9.0598829,53.2699969,Galway City,Galway,Republic of Ireland,Activity,Food and Drink,Pubs and Bar,None,None,None,None,None
Bunratty Castle & Folk Park,https://www.bunrattycastle.ie/,35361711222,LocalBusiness,TouristAttraction,-8.8119226,52.6995682,Bunratty,Clare,Republic of Ireland,Activity,Castle,Attraction,Historic Houses and Castle,Gardens,Garden,Museums and Attraction,Cafe
Skryne Church,https://www.skryneandrathfeighparish.ie/,3530469025152,LocalBusiness,TouristAttraction,-6.5631088,53.5859852,Kells,Meath,Republic of Ireland,Activity,Church Abbey,Monastery,Attraction,Churches,Abbeys and Monastery,Ruins,Historic Houses and Castle
Lismore Castle Gardens,http://www.lismorecastlegardens.com/,3535854061,LocalBusiness,SportsActivityLocation,-7.9332087,52.1381244,Lismore,Waterford,Republic of Ireland,Activity,Walking,Gardens,Attraction,Garden,Cafe,Food and Drink,None
The Horseshoe Bar at The Shelbourne Hotel,https://www.theshelbourne.com/dine-drink/the-horseshoe-bar,35316634500,LocalBusiness,BarOrPub,-6.2559042,53.3389967,Dublin City,Dublin,Republic of Ireland,Activity,Food and Drink,Pubs and Bar,None,None,None,None,None
Copper Coast Road Bowling Tuition,https://www.facebook.com/fenorbowls,353894382043,LocalBusiness,TravelAgency,-7.22127167888186,52.1569878423524,Fenor,Waterford,Republic of Ireland,Activity,Learning,Activity Operator,None,None,None,None,None
St. Mullins Ecclesiastical Village,,,LocalBusiness,TouristAttraction,-6.92901593581485,52.4912996422915,Saint Mullins,Carlow,Republic of Ireland,Activity,Church Abbey,Monastery,Attraction,Churches,Abbeys and Monastery,None,None
The Queens Dalkey,https://www.thequeens.ie/,35312854569,LocalBusiness,BarOrPub,-6.105,53.2777778,Dalkey,Dublin,Republic of Ireland,Activity,Food and Drink,Pubs and Bar,None,None,None,None,None
Waterford Airport,http://www.waterfordairport.ie,353051846600,LocalBusiness,Not Available,-7.081038,52.188609,Waterford City,Waterford,Republic of Ireland,Activity,Transport,Coach,Road,None,None,None,None
Shannonbridge Fortifications,https://www.visitoffaly.ie/spaces/shannonbridge-fort/,353909674973,LocalBusiness,SportsActivityLocation,-8.052321,53.2791925,Athlone,Roscommon,Republic of Ireland,Activity,Walking,Attraction,Museums and Attraction,Cafe,Food and Drink,Food Shops,Shopping
Misunderstood Heron,https://www.misunderstoodheron.com/,353830244203,LocalBusiness,FoodEstablishment,-9.7705952,53.594348,Leenane,Galway,Republic of Ireland,Activity,Food and Drink,Restaurant,Artisan,Cafe,Fast Food,Local Produce,Seafood
Oughterard Golf Club,https://oughterardgolfclub.com,35391552131,LocalBusiness,SportsActivityLocation,-9.286932,53.421874,Oughterard,Galway,Republic of Ireland,Golf Course,Activity,Golf,Activity Operator,None,None,None,None
"University Concert Hall, Limerick",https://www.uch.ie/,35361331549,LocalBusiness,ComedyClub,-8.573412,52.6743389,Limerick City,Limerick,Republic of Ireland,Activity,Venue,Comedy,Music,Cafe,Food and Drink,None,None
The River Boyne,https://fishinginireland.info/salmon/east/boyne/,35318842600,LocalBusiness,SportsActivityLocation,-6.701363,53.5807256,Drogheda,Louth,Republic of Ireland,Activity,Fishing,Angling,None,None,None,None,None
